country,state,city,station,last_update,latitude,longitude,pollutant_id,pollutant_min,pollutant_max,pollutant_avg
India,Andhra_Pradesh,Anantapur,"Gulzarpet, Anantapur - APPCB","04-04-2025 15:00:00",14.675886,77.593027,PM2.5,NA,NA,NA
India,Andhra_Pradesh,Anantapur,"Gulzarpet, Anantapur - APPCB","04-04-2025 15:00:00",14.675886,77.593027,CO,13,18,16
India,Andhra_Pradesh,Chittoor,"Gangineni Cheruvu, Chittoor - APPCB","04-04-2025 15:00:00",13.204880,79.097889,PM2.5,36,65,49
India,Andhra_Pradesh,Kadapa,"Yerramukkapalli, Kadapa - APPCB","04-04-2025 15:00:00",14.465052,78.824187,NO2,10,24,16
India,Andhra_Pradesh,Kadapa,"Yerramukkapalli, Kadapa - APPCB","04-04-2025 15:00:00",14.465052,78.824187,OZONE,9,11,9
India,Assam,Byrnihat,"Central Academy for SFS, Byrnihat - PCBA","04-04-2025 15:00:00",26.071318,91.87488,NO2,8,35,15
India,Assam,Byrnihat,"Central Academy for SFS, Byrnihat - PCBA","04-04-2025 15:00:00",26.071318,91.87488,SO2,29,31,30
India,Assam,Guwahati,"IITG, Guwahati - PCBA","04-04-2025 15:00:00",26.2028636,91.70046436,NH3,5,5,5
India,Assam,Guwahati,"IITG, Guwahati - PCBA","04-04-2025 15:00:00",26.2028636,91.70046436,CO,10,20,16
India,Assam,Guwahati,"LGBI Airport, Guwahati - PCBA","04-04-2025 15:00:00",26.10887,91.589544,NH3,16,21,17
India,Assam,Guwahati,"Railway Colony, Guwahati - PCBA","04-04-2025 15:00:00",26.181742,91.78063,SO2,20,23,21
India,Assam,Nagaon,"Christianpatty, Nagaon - PCBA","04-04-2025 15:00:00",26.349082,92.68449,PM10,NA,NA,NA
India,Assam,Silchar,"Tarapur, Silchar - PCBA","04-04-2025 15:00:00",24.82827,92.79525,CO,16,38,27
India,Andhra_Pradesh,Vijayawada,"HB Colony, Vijayawada - APPCB","04-04-2025 15:00:00",16.536107,80.594233,CO,16,36,26
India,Andhra_Pradesh,Vijayawada,"Rajiv Gandhi Park, Vijayawada - APPCB","04-04-2025 15:00:00",16.509717,80.612222,PM2.5,61,93,77
India,Andhra_Pradesh,Vijayawada,"Rajiv Gandhi Park, Vijayawada - APPCB","04-04-2025 15:00:00",16.509717,80.612222,PM10,64,95,80
India,Andhra_Pradesh,Tirumala,"Toll Gate, Tirumala - APPCB (Formerly known as Tirumala, Tirupati - APPCB)","04-04-2025 15:00:00",13.67,79.35,PM2.5,19,51,31
India,Andhra_Pradesh,Tirumala,"Toll Gate, Tirumala - APPCB (Formerly known as Tirumala, Tirupati - APPCB)","04-04-2025 15:00:00",13.67,79.35,PM10,20,67,36
India,"Andaman and Nicobar","Sri Vijaya Puram","Police Line, Sri Vijaya Puram - ANPCC","04-04-2025 15:00:00",11.654054,92.734055,OZONE,3,33,6
India,"Andaman and Nicobar","Sri Vijaya Puram","Police Line, Sri Vijaya Puram - ANPCC","04-04-2025 15:00:00",11.654054,92.734055,PM2.5,NA,NA,NA
India,Andhra_Pradesh,Vijayawada,"Rajiv Gandhi Park, Vijayawada - APPCB","04-04-2025 15:00:00",16.509717,80.612222,NH3,3,6,4
India,Andhra_Pradesh,Vijayawada,"Rajiv Nagar, Vijayawada - APPCB","04-04-2025 15:00:00",16.554731,80.649110,OZONE,49,120,83
India,Arunachal_Pradesh,Naharlagun,"Naharlagun, Naharlagun - APSPCB","04-04-2025 15:00:00",27.103358,93.679645,PM10,73,141,102
India,Bihar,Hajipur,"Industrial Area, Hajipur - BSPCB","04-04-2025 15:00:00",25.697189,85.245900,SO2,6,70,10
India,Bihar,Katihar,"Mirchaibari, Katihar - BSPCB","04-04-2025 15:00:00",25.560083,87.553265,PM2.5,38,88,60
India,Bihar,Katihar,"Mirchaibari, Katihar - BSPCB","04-04-2025 15:00:00",25.560083,87.553265,NH3,1,1,1
India,Bihar,Kishanganj,"SDM Office_Khagra, Kishanganj - BSPCB","04-04-2025 15:00:00",26.0881305,87.93840336,PM2.5,33,73,55
India,Bihar,Kishanganj,"SDM Office_Khagra, Kishanganj - BSPCB","04-04-2025 15:00:00",26.0881305,87.93840336,NO2,NA,NA,NA
India,Bihar,Kishanganj,"SDM Office_Khagra, Kishanganj - BSPCB","04-04-2025 15:00:00",26.0881305,87.93840336,NH3,10,14,10
India,Bihar,Gaya,"Collectorate, Gaya - BSPCB","04-04-2025 15:00:00",24.7955,84.9994,PM2.5,36,219,97
India,Bihar,Gaya,"Collectorate, Gaya - BSPCB","04-04-2025 15:00:00",24.7955,84.9994,OZONE,19,21,21
India,Bihar,Gaya,"Kareemganj, Gaya - BSPCB","04-04-2025 15:00:00",24.792403,84.992416,PM10,86,167,117
India,Bihar,Gaya,"Kareemganj, Gaya - BSPCB","04-04-2025 15:00:00",24.792403,84.992416,NO2,3,6,5
India,Bihar,Gaya,"Kareemganj, Gaya - BSPCB","04-04-2025 15:00:00",24.792403,84.992416,NH3,2,6,5
India,Bihar,Araria,"Kharahiya Basti, Araria - BSPCB","04-04-2025 15:00:00",26.146529,87.454184,PM10,82,155,128
India,Bihar,Araria,"Kharahiya Basti, Araria - BSPCB","04-04-2025 15:00:00",26.146529,87.454184,NO2,7,8,7
India,Bihar,Araria,"Kharahiya Basti, Araria - BSPCB","04-04-2025 15:00:00",26.146529,87.454184,CO,27,44,39
India,Bihar,Arrah,"New DM Office, Arrah - BSPCB","04-04-2025 15:00:00",25.5626095,84.663264,NO2,5,11,7
India,Bihar,Aurangabad,"Gurdeo Nagar, Aurangabad - BSPCB","04-04-2025 15:00:00",24.75746,84.366208,CO,18,31,26
India,Bihar,Aurangabad,"Gurdeo Nagar, Aurangabad - BSPCB","04-04-2025 15:00:00",24.75746,84.366208,OZONE,10,86,66
India,Bihar,Begusarai,"Lohiyanagar, Begusarai - BSPCB","04-04-2025 15:00:00",25.42742023,86.13886079,NH3,8,12,9
India,Bihar,Bhagalpur,"Mayaganj, Bhagalpur - BSPCB","04-04-2025 15:00:00",25.265194,87.012947,PM10,71,285,130
India,Bihar,Bhagalpur,"Mayaganj, Bhagalpur - BSPCB","04-04-2025 15:00:00",25.265194,87.012947,SO2,1,103,52
India,Bihar,Bhagalpur,"Mayaganj, Bhagalpur - BSPCB","04-04-2025 15:00:00",25.265194,87.012947,CO,26,64,30
India,Bihar,Bhagalpur,"Mayaganj, Bhagalpur - BSPCB","04-04-2025 15:00:00",25.265194,87.012947,OZONE,4,61,38
India,Bihar,"Bihar Sharif","D M Colony, Bihar Sharif - BSPCB","04-04-2025 15:00:00",25.204762,85.514960,PM10,78,215,118
India,Bihar,Manguraha,"Forest Rest House, Manguraha - BSPCB","04-04-2025 15:00:00",27.308328,84.531742,NO2,5,27,16
India,Bihar,Bettiah,"Kamalnath Nagar, Bettiah - BSPCB","04-04-2025 15:00:00",26.80365,84.51954,NO2,28,30,28
India,Bihar,Chhapra,"Darshan Nagar, Chhapra - BSPCB","04-04-2025 15:00:00",25.7808257,84.7446768,NH3,NA,NA,NA
India,Bihar,Samastipur,"DM Office_Kasipur, Samastipur - BSPCB","04-04-2025 15:00:00",25.859655,85.77944,SO2,25,43,35
India,Bihar,Samastipur,"DM Office_Kasipur, Samastipur - BSPCB","04-04-2025 15:00:00",25.859655,85.77944,CO,20,46,29
India,Bihar,Sasaram,"Dada Peer, Sasaram - BSPCB","04-04-2025 15:00:00",24.952822,84.002396,OZONE,NA,NA,NA
India,Bihar,Siwan,"Chitragupta Nagar, Siwan - BSPCB","04-04-2025 15:00:00",26.2271665,84.3570427,PM2.5,50,305,160
India,Bihar,Patna,"Muradpur, Patna - BSPCB","04-04-2025 15:00:00",25.619651,85.147382,SO2,6,10,8
India,Bihar,Patna,"Rajbansi Nagar, Patna - BSPCB","04-04-2025 15:00:00",25.599486,85.113666,PM10,60,126,105
India,Bihar,Patna,"Rajbansi Nagar, Patna - BSPCB","04-04-2025 15:00:00",25.599486,85.113666,CO,18,80,38
India,Bihar,Motihari,"Gandak Colony, Motihari - BSPCB","04-04-2025 15:00:00",26.63086,84.90051,OZONE,12,18,16
India,Bihar,Munger,"Town Hall, Munger - BSPCB","04-04-2025 15:00:00",25.376776,86.471523,PM2.5,53,170,77
India,Bihar,Patna,"Rajbansi Nagar, Patna - BSPCB","04-04-2025 15:00:00",25.599486,85.113666,OZONE,9,128,90
India,Bihar,Purnia,"Mariam Nagar, Purnia - BSPCB","04-04-2025 15:00:00",25.366336,87.117468,CO,18,89,64
India,Bihar,Patna,"DRM Office Danapur, Patna - BSPCB","04-04-2025 15:00:00",25.586562,85.043586,NH3,2,3,3
India,Bihar,Patna,"Muradpur, Patna - BSPCB","04-04-2025 15:00:00",25.619651,85.147382,PM2.5,93,225,167
India,Bihar,Muzaffarpur,"Muzaffarpur Collectorate, Muzaffarpur - BSPCB","04-04-2025 15:00:00",26.1209,85.3647,PM2.5,20,59,34
India,Bihar,Siwan,"Chitragupta Nagar, Siwan - BSPCB","04-04-2025 15:00:00",26.2271665,84.3570427,OZONE,17,102,69
India,Bihar,Muzaffarpur,"Buddha Colony, Muzaffarpur - BSPCB","04-04-2025 15:00:00",26.11442,85.39813,CO,18,62,36
India,Bihar,Purnia,"Mariam Nagar, Purnia - BSPCB","04-04-2025 15:00:00",25.366336,87.117468,OZONE,20,53,29
India,Chhattisgarh,Chhal,"Nawapara SECL Colony, Chhal - CECB","04-04-2025 15:00:00",22.118125,83.140608,PM10,NA,NA,NA
India,Chhattisgarh,Chhal,"Nawapara SECL Colony, Chhal - CECB","04-04-2025 15:00:00",22.118125,83.140608,NH3,NA,NA,NA
India,Chhattisgarh,Chhal,"Nawapara SECL Colony, Chhal - CECB","04-04-2025 15:00:00",22.118125,83.140608,CO,15,46,16
India,Chhattisgarh,Korba,"Rampur, Korba - CECB","04-04-2025 15:00:00",22.368195,82.746431,NO2,23,46,30
India,Chhattisgarh,Raipur,"Krishak Nagar, Raipur - CECB","04-04-2025 15:00:00",21.237755,81.705301,CO,34,47,41
India,Chhattisgarh,Tumidih,"OP Jindal Industrial Park, Tumidih - CECB","04-04-2025 15:00:00",22.06631475,83.33820077,NH3,NA,NA,NA
India,Chandigarh,Chandigarh,"Sector-53, Chandigarh - CPCC","04-04-2025 15:00:00",30.719859,76.738637,OZONE,7,94,65
India,Chhattisgarh,Bhilai,"32Bungalows, Bhilai - CECB","04-04-2025 15:00:00",21.194815,81.314770,PM10,38,79,60
India,Chhattisgarh,Raipur,"AIIMS, Raipur - CECB","04-04-2025 15:00:00",21.258815,81.578979,PM2.5,NA,NA,NA
India,Chhattisgarh,Raipur,"Bhatagaon New ISBT, Raipur - CECB","04-04-2025 15:00:00",21.219665,81.630094,CO,28,43,36
India,Chandigarh,Chandigarh,"Sector 22, Chandigarh - CPCC","04-04-2025 15:00:00",30.735567,76.775714,SO2,11,71,26
India,Chandigarh,Chandigarh,"Sector 22, Chandigarh - CPCC","04-04-2025 15:00:00",30.735567,76.775714,CO,33,108,51
India,Chhattisgarh,Tumidih,"OP Jindal Industrial Park, Tumidih - CECB","04-04-2025 15:00:00",22.06631475,83.33820077,OZONE,34,87,58
India,Chhattisgarh,Bhilai,"Civic Center, Bhilai - Bhilai Steel Plant","04-04-2025 15:00:00",21.185571,81.343175,NO2,5,9,7
India,Chhattisgarh,Raipur,"Krishak Nagar, Raipur - CECB","04-04-2025 15:00:00",21.237755,81.705301,PM10,41,115,68
India,Chhattisgarh,Korba,"Urja Nagar, Korba - CECB","04-04-2025 15:00:00",22.348441,82.549611,OZONE,35,36,35
India,Delhi,Delhi,"Jawaharlal Nehru Stadium, Delhi - DPCC","04-04-2025 15:00:00",28.580280,77.233829,OZONE,3,78,36
India,Delhi,Delhi,"Lodhi Road, Delhi - IITM","04-04-2025 15:00:00",28.588333,77.221667,PM10,75,184,143
India,Delhi,Delhi,"Lodhi Road, Delhi - IITM","04-04-2025 15:00:00",28.588333,77.221667,NO2,33,187,102
India,Delhi,Delhi,"Lodhi Road, Delhi - IITM","04-04-2025 15:00:00",28.588333,77.221667,SO2,22,92,40
India,Delhi,Delhi,"Lodhi Road, Delhi - IMD","04-04-2025 15:00:00",28.5918245,77.2273074,CO,11,64,30
India,Delhi,Delhi,"Major Dhyan Chand National Stadium, Delhi - DPCC","04-04-2025 15:00:00",28.611281,77.237738,NO2,18,183,102
India,Delhi,Delhi,"Major Dhyan Chand National Stadium, Delhi - DPCC","04-04-2025 15:00:00",28.611281,77.237738,NH3,12,19,15
India,Delhi,Delhi,"IHBAS, Dilshad Garden, Delhi - CPCB","04-04-2025 15:00:00",28.6811736,77.3025234,PM2.5,59,315,142
India,Delhi,Delhi,"IHBAS, Dilshad Garden, Delhi - CPCB","04-04-2025 15:00:00",28.6811736,77.3025234,SO2,2,6,3
India,Delhi,Delhi,"IHBAS, Dilshad Garden, Delhi - CPCB","04-04-2025 15:00:00",28.6811736,77.3025234,CO,5,116,52
India,Delhi,Delhi,"ITO, Delhi - CPCB","04-04-2025 15:00:00",28.628624,77.241060,PM10,47,316,157
India,Delhi,Delhi,"ITO, Delhi - CPCB","04-04-2025 15:00:00",28.628624,77.241060,SO2,5,19,12
India,Delhi,Delhi,"Ashok Vihar, Delhi - DPCC","04-04-2025 15:00:00",28.695381,77.181665,SO2,13,31,21
India,Delhi,Delhi,"Ashok Vihar, Delhi - DPCC","04-04-2025 15:00:00",28.695381,77.181665,CO,6,122,33
India,Delhi,Delhi,"Ashok Vihar, Delhi - DPCC","04-04-2025 15:00:00",28.695381,77.181665,OZONE,1,248,186
India,Delhi,Delhi,"Dr. Karni Singh Shooting Range, Delhi - DPCC","04-04-2025 15:00:00",28.498571,77.264840,PM2.5,NA,NA,NA
India,Delhi,Delhi,"Dr. Karni Singh Shooting Range, Delhi - DPCC","04-04-2025 15:00:00",28.498571,77.264840,NH3,NA,NA,NA
India,Delhi,Delhi,"Jawaharlal Nehru Stadium, Delhi - DPCC","04-04-2025 15:00:00",28.580280,77.233829,NH3,12,22,17
India,Delhi,Delhi,"Dwarka-Sector 8, Delhi - DPCC ","04-04-2025 15:00:00",28.5710274,77.0719006,PM10,77,500,255
India,Delhi,Delhi,"CRRI Mathura Road, Delhi - IMD","04-04-2025 15:00:00",28.5512005,77.2735737,NO2,19,174,119
India,Delhi,Delhi,"Burari Crossing, Delhi - IMD","04-04-2025 15:00:00",28.7256504,77.2011573,PM2.5,32,354,217
India,Delhi,Delhi,"Alipur, Delhi - DPCC","04-04-2025 15:00:00",28.815329,77.153010,OZONE,1,13,6
India,Delhi,Delhi,"Punjabi Bagh, Delhi - DPCC","04-04-2025 15:00:00",28.674045,77.131023,NO2,36,118,76
India,Delhi,Delhi,"Punjabi Bagh, Delhi - DPCC","04-04-2025 15:00:00",28.674045,77.131023,NH3,6,14,10
India,Delhi,Delhi,"Pusa, Delhi - DPCC","04-04-2025 15:00:00",28.639652,77.146275,CO,6,101,29
India,Delhi,Delhi,"Pusa, Delhi - IMD","04-04-2025 15:00:00",28.636110,77.173332,CO,18,98,59
India,Delhi,Delhi,"Pusa, Delhi - IMD","04-04-2025 15:00:00",28.636110,77.173332,OZONE,4,53,26
India,Delhi,Delhi,"R K Puram, Delhi - DPCC","04-04-2025 15:00:00",28.563262,77.186937,PM10,62,500,239
India,Delhi,Delhi,"R K Puram, Delhi - DPCC","04-04-2025 15:00:00",28.563262,77.186937,NH3,2,5,4
India,Delhi,Delhi,"Nehru Nagar, Delhi - DPCC","04-04-2025 15:00:00",28.567890,77.250515,OZONE,2,304,299
India,Delhi,Delhi,"Okhla Phase-2, Delhi - DPCC","04-04-2025 15:00:00",28.530785,77.271255,SO2,3,33,16
India,Delhi,Delhi,"Okhla Phase-2, Delhi - DPCC","04-04-2025 15:00:00",28.530785,77.271255,CO,29,127,87
India,Delhi,Delhi,"Patparganj, Delhi - DPCC","04-04-2025 15:00:00",28.623763,77.287209,PM10,80,491,223
India,Delhi,Delhi,"Patparganj, Delhi - DPCC","04-04-2025 15:00:00",28.623763,77.287209,NO2,14,170,96
India,Delhi,Delhi,"Patparganj, Delhi - DPCC","04-04-2025 15:00:00",28.623763,77.287209,SO2,3,9,6
India,Delhi,Delhi,"Rohini, Delhi - DPCC","04-04-2025 15:00:00",28.732528,77.119920,CO,10,137,37
India,Delhi,Delhi,"Shadipur, Delhi - CPCB","04-04-2025 15:00:00",28.6514781,77.1473105,NH3,4,15,8
India,Delhi,Delhi,"Sonia Vihar, Delhi - DPCC","04-04-2025 15:00:00",28.710508,77.249485,NH3,4,15,6
India,Delhi,Delhi,"Sri Aurobindo Marg, Delhi - DPCC","04-04-2025 15:00:00",28.531346,77.190156,NO2,6,138,71
India,Delhi,Delhi,"Sri Aurobindo Marg, Delhi - DPCC","04-04-2025 15:00:00",28.531346,77.190156,CO,4,84,30
India,Delhi,Delhi,"Vivek Vihar, Delhi - DPCC","04-04-2025 15:00:00",28.672342,77.315260,PM10,64,358,210
India,Delhi,Delhi,"Vivek Vihar, Delhi - DPCC","04-04-2025 15:00:00",28.672342,77.315260,NO2,13,120,77
India,Delhi,Delhi,"Najafgarh, Delhi - DPCC","04-04-2025 15:00:00",28.570173,76.933762,NH3,7,12,9
India,Delhi,Delhi,"Narela, Delhi - DPCC","04-04-2025 15:00:00",28.822836,77.101981,PM10,94,443,217
India,Delhi,Delhi,"Nehru Nagar, Delhi - DPCC","04-04-2025 15:00:00",28.567890,77.250515,PM10,68,341,183
India,Delhi,Delhi,"Nehru Nagar, Delhi - DPCC","04-04-2025 15:00:00",28.567890,77.250515,NO2,12,101,59
India,Delhi,Delhi,"Major Dhyan Chand National Stadium, Delhi - DPCC","04-04-2025 15:00:00",28.611281,77.237738,OZONE,4,234,200
India,Delhi,Delhi,"Mundka, Delhi - DPCC","04-04-2025 15:00:00",28.684678,77.076574,NO2,27,109,78
India,Delhi,Delhi,"Mundka, Delhi - DPCC","04-04-2025 15:00:00",28.684678,77.076574,SO2,3,105,30
India,Gujarat,Ahmedabad,"SAC ISRO Bopal, Ahmedabad - IITM","04-04-2025 15:00:00",23.041137,72.456691,PM10,43,120,90
India,Gujarat,Ahmedabad,"SVPI Airport Hansol, Ahmedabad - IITM","04-04-2025 15:00:00",23.076793,72.627874,PM2.5,39,80,56
India,Gujarat,Ahmedabad,"SVPI Airport Hansol, Ahmedabad - IITM","04-04-2025 15:00:00",23.076793,72.627874,SO2,1,72,13
India,Gujarat,Ahmedabad,"Sardar Vallabhbhai Patel Stadium, Ahmedabad - IITM","04-04-2025 15:00:00",23.043070,72.562968,SO2,12,108,34
India,Gujarat,Ahmedabad,"Sardar Vallabhbhai Patel Stadium, Ahmedabad - IITM","04-04-2025 15:00:00",23.043070,72.562968,OZONE,14,301,101
India,Gujarat,Nandesari,"GIDC, Nandesari - Nandesari Ind. Association","04-04-2025 15:00:00",22.410802,73.097923,NO2,2,38,17
India,Gujarat,Surat,"Science Center, Surat - SMC","04-04-2025 15:00:00",21.170046,72.795405,CO,40,54,43
India,Gujarat,Vapi,"Phase-1 GIDC, Vapi - GPCB","04-04-2025 15:00:00",20.362421,72.918013,NO2,13,14,14
India,Gujarat,Ahmedabad,"Maninagar, Ahmedabad - GPCB","04-04-2025 15:00:00",23.002657,72.591912,CO,14,52,20
India,Gujarat,Ahmedabad,"Rakhial, Ahmedabad - IITM","04-04-2025 15:00:00",23.016834,72.625775,NO2,3,10,7
India,Gujarat,Ahmedabad,"Rakhial, Ahmedabad - IITM","04-04-2025 15:00:00",23.016834,72.625775,SO2,16,137,52
India,Gujarat,Ahmedabad,"Rakhial, Ahmedabad - IITM","04-04-2025 15:00:00",23.016834,72.625775,CO,2,66,23
India,Delhi,Delhi,"Wazirpur, Delhi - DPCC","04-04-2025 15:00:00",28.699793,77.165453,SO2,18,47,32
India,Gujarat,Ahmedabad,"Chandkheda, Ahmedabad - IITM","04-04-2025 15:00:00",23.107969,72.574648,CO,1,61,45
India,Gujarat,Ahmedabad,"Gyaspur, Ahmedabad - IITM","04-04-2025 15:00:00",22.977134,72.553024,PM10,89,268,148
India,Gujarat,Ahmedabad,"Gyaspur, Ahmedabad - IITM","04-04-2025 15:00:00",22.977134,72.553024,NO2,15,95,42
India,Gujarat,Ahmedabad,"Gyaspur, Ahmedabad - IITM","04-04-2025 15:00:00",22.977134,72.553024,NH3,1,10,6
India,Gujarat,Gandhinagar,"IIPHG Lekawada, Gandhinagar - IITM","04-04-2025 15:00:00",23.243639,72.68994,SO2,6,42,16
India,Gujarat,Gandhinagar,"IIPHG Lekawada, Gandhinagar - IITM","04-04-2025 15:00:00",23.243639,72.68994,CO,48,55,52
India,Gujarat,Gandhinagar,"GIFT City, Gandhinagar - IITM","04-04-2025 15:00:00",23.163798,72.677768,PM2.5,40,287,111
India,Gujarat,Gandhinagar,"Sector-10, Gandhinagar - GPCB","04-04-2025 15:00:00",23.221714,72.654328,PM2.5,21,71,52
India,Gujarat,Ankleshwar,"GIDC, Ankleshwar - GPCB","04-04-2025 15:00:00",21.613267,73.010555,CO,24,106,89
India,Gujarat,Vatva,"Phase-4 GIDC, Vatva - GPCB","04-04-2025 15:00:00",22.969611,72.643500,OZONE,1,2,1
India,Haryana,Gurugram,"NISE Gwal Pahari, Gurugram - IMD","04-04-2025 15:00:00",28.422681,77.148944,OZONE,25,226,84
India,Haryana,Panchgaon,"Amity University, Panchgaon - IITM","04-04-2025 15:00:00",28.3153,76.9143,PM10,NA,NA,NA
India,Haryana,Panchgaon,"Amity University, Panchgaon - IITM","04-04-2025 15:00:00",28.3153,76.9143,SO2,2,38,23
India,"Himachal Pradesh",Baddi,"HIMUDA Complex Phase-1, Baddi - HPPCB","04-04-2025 15:00:00",30.943887,76.801991,PM10,56,208,112
India,"Himachal Pradesh",Baddi,"HIMUDA Complex Phase-1, Baddi - HPPCB","04-04-2025 15:00:00",30.943887,76.801991,NO2,4,79,22
India,"Himachal Pradesh",Baddi,"HIMUDA Complex Phase-1, Baddi - HPPCB","04-04-2025 15:00:00",30.943887,76.801991,NH3,3,5,4
India,Karnataka,Bengaluru,"Shivapura_Peenya, Bengaluru - KSPCB","04-04-2025 15:00:00",13.0246342,77.5080115,SO2,3,16,10
India,Karnataka,Bengaluru,"Shivapura_Peenya, Bengaluru - KSPCB","04-04-2025 15:00:00",13.0246342,77.5080115,OZONE,23,26,24
India,Karnataka,Bengaluru,"Silk Board, Bengaluru - KSPCB","04-04-2025 15:00:00",12.917348,77.622813,PM2.5,23,69,42
India,Karnataka,Bengaluru,"Silk Board, Bengaluru - KSPCB","04-04-2025 15:00:00",12.917348,77.622813,NO2,22,54,31
India,Karnataka,Bagalkot,"Vidayagiri, Bagalkot - KSPCB","04-04-2025 15:00:00",16.172806,75.659694,SO2,7,7,7
India,Karnataka,Bagalkot,"Vidayagiri, Bagalkot - KSPCB","04-04-2025 15:00:00",16.172806,75.659694,CO,10,38,26
India,Karnataka,Belgaum,"Ramteerth Nagar, Belgaum - KSPCB","04-04-2025 15:00:00",15.888653,74.541751,OZONE,19,19,19
India,Karnataka,Bengaluru,"Sanegurava Halli, Bengaluru - KSPCB","04-04-2025 15:00:00",12.990328,77.5431385,PM10,38,41,39
India,Karnataka,Bengaluru,"Sanegurava Halli, Bengaluru - KSPCB","04-04-2025 15:00:00",12.990328,77.5431385,SO2,7,7,7
India,Karnataka,Bengaluru,"Shivapura_Peenya, Bengaluru - KSPCB","04-04-2025 15:00:00",13.0246342,77.5080115,PM10,23,60,39
India,Karnataka,Bengaluru,"Jayanagar 5th Block, Bengaluru - KSPCB","04-04-2025 15:00:00",12.920984,77.584908,NH3,NA,NA,NA
India,Karnataka,Bengaluru,"Kasturi Nagar, Bengaluru - KSPCB","04-04-2025 15:00:00",13.003872,77.664217,PM2.5,39,40,39
India,Karnataka,Bengaluru,"Kasturi Nagar, Bengaluru - KSPCB","04-04-2025 15:00:00",13.003872,77.664217,NH3,3,3,3
India,Karnataka,Bengaluru,"Silk Board, Bengaluru - KSPCB","04-04-2025 15:00:00",12.917348,77.622813,OZONE,1,52,29
India,Karnataka,Chamarajanagar,"Urban, Chamarajanagar - KSPCB","04-04-2025 15:00:00",11.55358,76.55521,PM2.5,20,44,31
India,Karnataka,Bengaluru,"Bapuji Nagar, Bengaluru - KSPCB","04-04-2025 15:00:00",12.951913,77.539784,PM10,40,116,78
India,Karnataka,Bengaluru,"Bapuji Nagar, Bengaluru - KSPCB","04-04-2025 15:00:00",12.951913,77.539784,NO2,5,15,10
India,Karnataka,Bengaluru,"Bapuji Nagar, Bengaluru - KSPCB","04-04-2025 15:00:00",12.951913,77.539784,CO,31,100,64
India,Karnataka,Bengaluru,"Hebbal, Bengaluru - KSPCB","04-04-2025 15:00:00",13.029152,77.585901,SO2,2,6,3
India,Karnataka,Bengaluru,"Hombegowda Nagar, Bengaluru - KSPCB","04-04-2025 15:00:00",12.938539,77.590100,PM10,20,44,30
India,Jharkhand,Dhanbad,"Sardar Patel Nagar, Dhanbad - JSPCB","04-04-2025 15:00:00",23.80569,86.44268,CO,1,2,2
India,Jharkhand,Dhanbad,"Sardar Patel Nagar, Dhanbad - JSPCB","04-04-2025 15:00:00",23.80569,86.44268,OZONE,15,49,33
India,Karnataka,Chikkaballapur,"Chikkaballapur Rural, Chikkaballapur - KSPCB","04-04-2025 15:00:00",13.428828,77.731418,SO2,16,25,21
India,Karnataka,Chikkamagaluru,"Kalyana Nagara, Chikkamagaluru - KSPCB","04-04-2025 15:00:00",13.328028,75.797056,OZONE,18,49,32
India,Karnataka,Davanagere,"Devaraj Urs Badavane, Davanagere - KSPCB","04-04-2025 15:00:00",14.475800,75.905200,NO2,10,14,12
India,Karnataka,Dharwad,"Kalabhavan, Dharwad - KSPCB","04-04-2025 15:00:00",15.459706,75.008381,PM10,59,69,62
India,Karnataka,Gadag,"Panchal Nagar, Gadag - KSPCB","04-04-2025 15:00:00",15.411456,75.638133,NH3,1,3,2
India,Karnataka,Haveri,"Ashwini Nagar, Haveri - KSPCB","04-04-2025 15:00:00",14.791800,75.389600,SO2,NA,NA,NA
India,Karnataka,Hubballi,"Lingaraj Nagar, Hubballi - KSPCB","04-04-2025 15:00:00",15.3714823,75.1160168,NO2,7,13,10
India,Karnataka,Kalaburagi,"Lal Bahadur Shastri Nagar, Kalaburagi - KSPCB","04-04-2025 15:00:00",17.321993,76.822628,NH3,1,5,3
India,Karnataka,Ramanagara,"Vijay Nagar, Ramanagara - KSPCB","04-04-2025 15:00:00",12.733409,77.298051,CO,8,24,19
India,Karnataka,Shivamogga,"Vinoba Nagara, Shivamogga - KSPCB","04-04-2025 15:00:00",13.940000,75.555917,PM10,36,52,41
India,Karnataka,Koppal,"Diwator Nagar, Koppal - KSPCB","04-04-2025 15:00:00",15.347630,76.181767,PM2.5,3,46,17
India,Karnataka,Koppal,"Diwator Nagar, Koppal - KSPCB","04-04-2025 15:00:00",15.347630,76.181767,SO2,10,27,20
India,Karnataka,Koppal,"Diwator Nagar, Koppal - KSPCB","04-04-2025 15:00:00",15.347630,76.181767,CO,24,40,31
India,Karnataka,Chamarajanagar,"Urban, Chamarajanagar - KSPCB","04-04-2025 15:00:00",11.55358,76.55521,NH3,2,3,3
India,Karnataka,Chamarajanagar,"Urban, Chamarajanagar - KSPCB","04-04-2025 15:00:00",11.55358,76.55521,OZONE,20,38,32
India,Karnataka,Shivamogga,"Vinoba Nagara, Shivamogga - KSPCB","04-04-2025 15:00:00",13.940000,75.555917,CO,17,38,26
India,Karnataka,Mysuru,"Hebbal 1st Stage, Mysuru - KSPCB","04-04-2025 15:00:00",12.21041,76.37376,SO2,1,24,8
India,Karnataka,Mangalore,"Kadri, Mangalore - KSPCB","04-04-2025 15:00:00",12.889250,74.853000,NH3,1,5,2
India,Kerala,Thrissur,"Corporation Ground, Thrissur - Kerala PCB","04-04-2025 15:00:00",10.532400,76.215900,OZONE,27,28,28
India,"Madhya Pradesh",Bhopal,"Idgah Hills, Bhopal - MPPCB","04-04-2025 15:00:00",23.264759,77.381568,NH3,5,22,8
India,"Madhya Pradesh",Bhopal,"Idgah Hills, Bhopal - MPPCB","04-04-2025 15:00:00",23.264759,77.381568,OZONE,31,122,96
India,"Madhya Pradesh",Bhopal,"Paryavaran Parisar, Bhopal - MPPCB","04-04-2025 15:00:00",23.210494,77.425409,PM10,61,200,105
India,"Madhya Pradesh",Bhopal,"T T Nagar, Bhopal - MPPCB","04-04-2025 15:00:00",23.233584,77.400574,PM2.5,35,293,89
India,"Madhya Pradesh",Bhopal,"T T Nagar, Bhopal - MPPCB","04-04-2025 15:00:00",23.233584,77.400574,OZONE,6,234,230
India,"Madhya Pradesh",Damoh,"Shrivastav Colony, Damoh - MPPCB","04-04-2025 15:00:00",23.81748678,79.446246,PM2.5,NA,NA,NA
India,"Madhya Pradesh",Damoh,"Shrivastav Colony, Damoh - MPPCB","04-04-2025 15:00:00",23.81748678,79.446246,PM10,NA,NA,NA
India,"Madhya Pradesh",Damoh,"Shrivastav Colony, Damoh - MPPCB","04-04-2025 15:00:00",23.81748678,79.446246,CO,14,22,17
India,Kerala,Thiruvananthapuram,"Kariavattom, Thiruvananthapuram - Kerala PCB","04-04-2025 15:00:00",8.563700,76.886500,OZONE,36,37,37
India,Kerala,Thiruvananthapuram,"Plammoodu, Thiruvananthapuram - Kerala PCB","04-04-2025 15:00:00",8.5149093,76.9435879,PM2.5,9,50,25
India,Kerala,Thiruvananthapuram,"Plammoodu, Thiruvananthapuram - Kerala PCB","04-04-2025 15:00:00",8.5149093,76.9435879,CO,10,44,16
India,"Madhya Pradesh",Gwalior,"Maharaj Bada, Gwalior - MPPCB","04-04-2025 15:00:00",26.200388,78.147714,OZONE,1,168,118
India,"Madhya Pradesh",Indore,"Airport Area, Indore - IMC","04-04-2025 15:00:00",22.7289,75.8076,SO2,15,16,16
India,"Madhya Pradesh",Dewas,"Bhopal Chauraha, Dewas - MPPCB","04-04-2025 15:00:00",22.9682591,76.064118,CO,15,45,29
India,"Madhya Pradesh",Gwalior,"City Center, Gwalior - MPPCB","04-04-2025 15:00:00",26.203442,78.193251,PM2.5,15,174,59
India,Kerala,Kannur,"Thavakkara, Kannur - Kerala PCB","04-04-2025 15:00:00",11.875000,75.373200,OZONE,26,31,29
India,Kerala,Kollam,"Polayathode, Kollam - Kerala PCB","04-04-2025 15:00:00",8.8787,76.6073,PM10,NA,NA,NA
India,"Madhya Pradesh",Dewas,"Bhopal Chauraha, Dewas - MPPCB","04-04-2025 15:00:00",22.9682591,76.064118,PM10,68,181,120
India,Karnataka,Tumakuru,"Thimmalapura, Tumakuru - KSPCB","04-04-2025 15:00:00",13.377516,77.099072,PM10,52,500,182
India,Karnataka,Yadgir,"Collector Office, Yadgir - KSPCB","04-04-2025 15:00:00",16.7602,77.1428,OZONE,17,19,18
India,"Madhya Pradesh",Sagar,"Civil Lines, Sagar - MPPCB","04-04-2025 15:00:00",23.838586,78.759431,OZONE,10,74,40
India,"Madhya Pradesh",Sagar,"Deen Dayal Nagar, Sagar - MPPCB","04-04-2025 15:00:00",23.8640158,78.80289321,SO2,27,36,32
India,"Madhya Pradesh",Singrauli,"Suryakiran Bhawan NCL, Singrauli - MPPCB","04-04-2025 15:00:00",24.108970,82.645580,PM2.5,40,311,147
India,"Madhya Pradesh",Singrauli,"Suryakiran Bhawan NCL, Singrauli - MPPCB","04-04-2025 15:00:00",24.108970,82.645580,SO2,29,65,42
India,"Madhya Pradesh",Ujjain,"Mahakaleshwar Temple, Ujjain - MPPCB","04-04-2025 15:00:00","23.182719 ","75.768218 ",PM10,30,141,73
India,"Madhya Pradesh",Ujjain,"Mahakaleshwar Temple, Ujjain - MPPCB","04-04-2025 15:00:00","23.182719 ","75.768218 ",SO2,5,44,18
India,Maharashtra,Ahmednagar,"Tarakpur, Ahmednagar - MPCB","04-04-2025 15:00:00",19.10122,74.73339,PM10,54,107,84
India,Maharashtra,Ahmednagar,"Tarakpur, Ahmednagar - MPCB","04-04-2025 15:00:00",19.10122,74.73339,SO2,1,26,8
India,"Madhya Pradesh",Indore,"Chhoti Gwaltoli, Indore - MPPCB","04-04-2025 15:00:00",22.4310,75.5213,NO2,46,152,98
India,"Madhya Pradesh",Indore,"Regional Park, Indore - IMC","04-04-2025 15:00:00",22.6780,75.8559,PM10,33,104,64
India,"Madhya Pradesh",Indore,"Regional Park, Indore - IMC","04-04-2025 15:00:00",22.6780,75.8559,OZONE,6,18,13
India,"Madhya Pradesh",Indore,"Residency Area, Indore - IMC","04-04-2025 15:00:00",22.7084,75.8815,PM10,43,164,95
India,"Madhya Pradesh",Indore,"Residency Area, Indore - IMC","04-04-2025 15:00:00",22.7084,75.8815,OZONE,10,21,16
India,"Madhya Pradesh",Jabalpur,"Govindh Bhavan Colony, Jabalpur - JMC","04-04-2025 15:00:00",23.163174,79.973061,PM2.5,15,62,36
India,"Madhya Pradesh",Jabalpur,"Govindh Bhavan Colony, Jabalpur - JMC","04-04-2025 15:00:00",23.163174,79.973061,PM10,28,109,53
India,"Madhya Pradesh",Jabalpur,"Govindh Bhavan Colony, Jabalpur - JMC","04-04-2025 15:00:00",23.163174,79.973061,CO,18,28,25
India,"Madhya Pradesh",Jabalpur,"Gupteshwar, Jabalpur - JMC","04-04-2025 15:00:00",23.142888,79.916147,SO2,14,14,14
India,"Madhya Pradesh",Jabalpur,"Gupteshwar, Jabalpur - JMC","04-04-2025 15:00:00",23.142888,79.916147,OZONE,14,111,76
India,"Madhya Pradesh",Jabalpur,"Marhatal, Jabalpur - MPPCB","04-04-2025 15:00:00",23.168606,79.932247,PM2.5,16,72,46
India,"Madhya Pradesh",Jabalpur,"Marhatal, Jabalpur - MPPCB","04-04-2025 15:00:00",23.168606,79.932247,NO2,24,77,34
India,"Madhya Pradesh",Jabalpur,"Marhatal, Jabalpur - MPPCB","04-04-2025 15:00:00",23.168606,79.932247,NH3,3,5,3
India,"Madhya Pradesh",Jabalpur,"Marhatal, Jabalpur - MPPCB","04-04-2025 15:00:00",23.168606,79.932247,SO2,6,12,10
India,"Madhya Pradesh",Jabalpur,"Marhatal, Jabalpur - MPPCB","04-04-2025 15:00:00",23.168606,79.932247,CO,11,100,37
India,"Madhya Pradesh",Jabalpur,"Suhagi, Jabalpur - JMC","04-04-2025 15:00:00",23.218135,79.957770,PM10,31,107,59
India,"Madhya Pradesh",Katni,"Gole Bazar, Katni - MPPCB","04-04-2025 15:00:00",23.50016,80.23284,PM10,72,188,120
India,"Madhya Pradesh",Katni,"Gole Bazar, Katni - MPPCB","04-04-2025 15:00:00",23.50016,80.23284,NO2,14,93,43
India,"Madhya Pradesh",Maihar,"Sahilara, Maihar - KJS Cements","04-04-2025 15:00:00",24.2613009,80.7231783,SO2,4,5,5
India,"Madhya Pradesh",Mandideep,"Sector-D Industrial Area, Mandideep - MPPCB","04-04-2025 15:00:00",23.108440,77.511428,PM2.5,NA,NA,NA
India,"Madhya Pradesh",Mandideep,"Sector-D Industrial Area, Mandideep - MPPCB","04-04-2025 15:00:00",23.108440,77.511428,NO2,NA,NA,NA
India,"Madhya Pradesh",Mandideep,"Sector-D Industrial Area, Mandideep - MPPCB","04-04-2025 15:00:00",23.108440,77.511428,OZONE,17,56,36
India,"Madhya Pradesh",Pithampur,"Sector-2 Industrial Area, Pithampur - MPPCB","04-04-2025 15:00:00",22.624758,75.675238,CO,8,107,62
India,"Madhya Pradesh",Pithampur,"Sector-2 Industrial Area, Pithampur - MPPCB","04-04-2025 15:00:00",22.624758,75.675238,OZONE,44,184,184
India,Maharashtra,Belapur,"CBD Belapur, Belapur - MPCB","04-04-2025 15:00:00",19.0243902,73.0406721,NH3,6,9,7
India,Maharashtra,Bhiwandi,"Gokul Nagar, Bhiwandi - MPCB","04-04-2025 15:00:00",19.309073,73.057223,PM2.5,28,53,41
India,Maharashtra,Bhiwandi,"Gokul Nagar, Bhiwandi - MPCB","04-04-2025 15:00:00",19.309073,73.057223,PM10,43,80,63
India,Maharashtra,Bhiwandi,"Gokul Nagar, Bhiwandi - MPCB","04-04-2025 15:00:00",19.309073,73.057223,NH3,3,6,4
India,Maharashtra,Bhiwandi,"Gokul Nagar, Bhiwandi - MPCB","04-04-2025 15:00:00",19.309073,73.057223,CO,16,28,21
India,Maharashtra,Chandrapur,"Chauhan Colony, Chandrapur - MPCB","04-04-2025 15:00:00",19.962900,79.298714,SO2,18,21,19
India,Maharashtra,Aurangabad,"Rachnakar Colony, Aurangabad - MPCB","04-04-2025 15:00:00",19.863756,75.321188,OZONE,33,119,102
India,Maharashtra,Badlapur,"Katrap, Badlapur - MPCB","04-04-2025 15:00:00",19.16485,73.23409,PM2.5,53,94,64
India,Maharashtra,Badlapur,"Katrap, Badlapur - MPCB","04-04-2025 15:00:00",19.16485,73.23409,SO2,4,17,9
India,Maharashtra,Aurangabad,"MIDC Chilkalthana, Aurangabad - MPCB","04-04-2025 15:00:00",19.875620,75.387310,OZONE,29,84,52
India,Maharashtra,Akola,"Ramdaspeth, Akola - MPCB","04-04-2025 15:00:00",20.719516,77.000253,PM10,48,108,68
India,"Madhya Pradesh",Sagar,"Civil Lines, Sagar - MPPCB","04-04-2025 15:00:00",23.838586,78.759431,NH3,1,1,1
India,Maharashtra,Jalna,"Old MIDC, Jalna - MPCB","04-04-2025 15:00:00",19.854616,75.905894,NO2,38,86,49
India,Maharashtra,Jalna,"Old MIDC, Jalna - MPCB","04-04-2025 15:00:00",19.854616,75.905894,SO2,1,4,1
India,Maharashtra,Kalyan,"Khadakpada, Kalyan - MPCB","04-04-2025 15:00:00",19.25292,73.142019,PM2.5,54,79,66
India,Maharashtra,Chandrapur,"MIDC Khutala, Chandrapur - MPCB","04-04-2025 15:00:00",19.9775302,79.2337086,SO2,NA,NA,NA
India,Maharashtra,Dhule,"Deopur, Dhule - MPCB","04-04-2025 15:00:00",20.918946,74.776388,PM10,57,94,75
India,Maharashtra,Dhule,"Deopur, Dhule - MPCB","04-04-2025 15:00:00",20.918946,74.776388,NH3,1,17,12
India,Maharashtra,Dhule,"Deopur, Dhule - MPCB","04-04-2025 15:00:00",20.918946,74.776388,OZONE,25,88,58
India,Maharashtra,Kolhapur,"Shivaji University, Kolhapur - MPCB","04-04-2025 15:00:00",16.6870449,74.2505872,PM2.5,15,32,22
India,Maharashtra,Chandrapur,"Chauhan Colony, Chandrapur - MPCB","04-04-2025 15:00:00",19.962900,79.298714,OZONE,20,24,23
India,Maharashtra,Mahad,"Kamble Tarf Birwadi, Mahad - MPCB","04-04-2025 15:00:00",18.1023399,73.4783687,NH3,4,21,8
India,Maharashtra,Kolhapur,"Sinchan Bhavan, Kolhapur - MPCB","04-04-2025 15:00:00",16.7143745,74.2426398,SO2,NA,NA,NA
India,Maharashtra,Kalyan,"Khadakpada, Kalyan - MPCB","04-04-2025 15:00:00",19.25292,73.142019,OZONE,16,16,16
India,Maharashtra,Latur,"Sawe Wadi, Latur - MPCB","04-04-2025 15:00:00",18.39963,76.57452,SO2,NA,NA,NA
India,Maharashtra,Mumbai,"Colaba, Mumbai - MPCB","04-04-2025 15:00:00",18.910000,72.820000,NO2,27,28,27
India,Maharashtra,Mumbai,"Colaba, Mumbai - MPCB","04-04-2025 15:00:00",18.910000,72.820000,CO,26,27,26
India,Maharashtra,Mumbai,"Deonar, Mumbai - IITM","04-04-2025 15:00:00",19.04946,72.9230,PM2.5,27,120,57
India,Maharashtra,Mumbai,"Deonar, Mumbai - IITM","04-04-2025 15:00:00",19.04946,72.9230,NO2,16,46,23
India,Maharashtra,Mumbai,"Ghatkopar, Mumbai - BMC","04-04-2025 15:00:00",19.083694,72.920967,PM10,46,67,56
India,Maharashtra,Mumbai,"Ghatkopar, Mumbai - BMC","04-04-2025 15:00:00",19.083694,72.920967,NH3,2,5,3
India,Maharashtra,Mumbai,"Ghatkopar, Mumbai - BMC","04-04-2025 15:00:00",19.083694,72.920967,CO,6,15,12
India,Maharashtra,Mumbai,"Bandra Kurla Complex, Mumbai - MPCB","04-04-2025 15:00:00",19.065931,72.862131,CO,16,96,56
India,Maharashtra,Mumbai,"Borivali East, Mumbai - IITM","04-04-2025 15:00:00",19.23241,72.86895,PM10,58,94,76
India,Maharashtra,Mumbai,"Borivali East, Mumbai - IITM","04-04-2025 15:00:00",19.23241,72.86895,NH3,5,6,6
India,Maharashtra,Mumbai,"Borivali East, Mumbai - IITM","04-04-2025 15:00:00",19.23241,72.86895,OZONE,2,38,22
India,Maharashtra,Mumbai,"Byculla, Mumbai - BMC","04-04-2025 15:00:00",18.9767,72.8380,PM2.5,28,51,40
India,Maharashtra,Mumbai,"Kandivali East, Mumbai - MPCB","04-04-2025 15:00:00",19.205800,72.868200,NO2,NA,NA,NA
India,Maharashtra,Mumbai,"Kandivali West, Mumbai - BMC","04-04-2025 15:00:00",19.215859,72.831718,PM2.5,24,52,40
India,Maharashtra,Mumbai,"Kandivali West, Mumbai - BMC","04-04-2025 15:00:00",19.215859,72.831718,PM10,30,70,45
India,Maharashtra,Mumbai,"Kandivali West, Mumbai - BMC","04-04-2025 15:00:00",19.215859,72.831718,OZONE,11,24,15
India,Maharashtra,Mumbai,"Kherwadi_Bandra East, Mumbai - MPCB","04-04-2025 15:00:00",19.0632143,72.8456324,NH3,4,17,9
India,Maharashtra,Mira-Bhayandar,"Bhayandar West, Mira-Bhayandar - MPCB","04-04-2025 15:00:00",19.296481,72.840923,SO2,1,1,1
India,Maharashtra,Mira-Bhayandar,"Bhayandar West, Mira-Bhayandar - MPCB","04-04-2025 15:00:00",19.296481,72.840923,CO,14,35,19
India,Maharashtra,Mumbai,"Bandra Kurla Complex, Mumbai - MPCB","04-04-2025 15:00:00",19.065931,72.862131,NH3,5,12,8
India,Maharashtra,Malegaon,"Mahesh Nagar, Malegaon - MPCB","04-04-2025 15:00:00",20.555712,74.529236,SO2,33,44,35
India,Maharashtra,Malegaon,"Mahesh Nagar, Malegaon - MPCB","04-04-2025 15:00:00",20.555712,74.529236,CO,18,64,30
India,Maharashtra,Mira-Bhayandar,"Bhayandar West, Mira-Bhayandar - MPCB","04-04-2025 15:00:00",19.296481,72.840923,PM2.5,28,49,37
India,Maharashtra,Mumbai,"Kurla, Mumbai - MPCB","04-04-2025 15:00:00",19.0863,72.8888,PM10,78,126,101
India,Maharashtra,Mumbai,"Kurla, Mumbai - MPCB","04-04-2025 15:00:00",19.0863,72.8888,SO2,36,37,37
India,Maharashtra,Mumbai,"Kurla, Mumbai - MPCB","04-04-2025 15:00:00",19.0863,72.8888,OZONE,27,29,28
India,Maharashtra,Mumbai,"Chhatrapati Shivaji Intl. Airport (T2), Mumbai - MPCB","04-04-2025 15:00:00",19.10078,72.87462,PM10,74,82,77
India,Maharashtra,Mumbai,"Chembur, Mumbai - MPCB","04-04-2025 15:00:00",19.0364585,72.8954371,NO2,16,49,27
India,Maharashtra,Mumbai,"Byculla, Mumbai - BMC","04-04-2025 15:00:00",18.9767,72.8380,OZONE,16,43,35
India,Maharashtra,Mumbai,"Siddharth Nagar-Worli, Mumbai - IITM","04-04-2025 15:00:00",19.000083,72.813993,CO,36,68,60
India,Maharashtra,Mumbai,"Sion, Mumbai - MPCB","04-04-2025 15:00:00",19.047000,72.874600,PM2.5,68,77,73
India,Maharashtra,Mumbai,"Sion, Mumbai - MPCB","04-04-2025 15:00:00",19.047000,72.874600,SO2,6,12,8
India,Maharashtra,Mumbai,"Sion, Mumbai - MPCB","04-04-2025 15:00:00",19.047000,72.874600,OZONE,5,5,5
India,Maharashtra,Mumbai,"Vasai West, Mumbai - MPCB","04-04-2025 15:00:00",19.383200,72.820400,NO2,47,88,58
India,Maharashtra,Mumbai,"Vasai West, Mumbai - MPCB","04-04-2025 15:00:00",19.383200,72.820400,CO,48,76,59
India,Maharashtra,Mumbai,"Vasai West, Mumbai - MPCB","04-04-2025 15:00:00",19.383200,72.820400,OZONE,6,7,7
India,Maharashtra,Mumbai,"Mindspace-Malad West, Mumbai - MPCB","04-04-2025 15:00:00",19.1878657,72.8304069,NO2,2,31,13
India,Maharashtra,Mumbai,"Mindspace-Malad West, Mumbai - MPCB","04-04-2025 15:00:00",19.1878657,72.8304069,SO2,2,23,7
India,Maharashtra,Mumbai,"Navy Nagar-Colaba, Mumbai - IITM","04-04-2025 15:00:00",18.897756,72.813320,NO2,13,46,20
India,Maharashtra,Mumbai,"Navy Nagar-Colaba, Mumbai - IITM","04-04-2025 15:00:00",18.897756,72.813320,CO,6,40,28
India,Maharashtra,Mumbai,"Powai, Mumbai - MPCB","04-04-2025 15:00:00",19.137500,72.915056,NO2,7,9,8
India,Maharashtra,Mumbai,"Vile Parle West, Mumbai - MPCB","04-04-2025 15:00:00",19.10861,72.83622,PM2.5,31,44,38
India,Maharashtra,Mumbai,"Worli, Mumbai - MPCB","04-04-2025 15:00:00",18.9936162,72.8128113,SO2,5,11,7
India,Maharashtra,Mumbai,"Worli, Mumbai - MPCB","04-04-2025 15:00:00",18.9936162,72.8128113,OZONE,NA,NA,NA
India,Maharashtra,Nagpur,"Ambazari, Nagpur - MPCB","04-04-2025 15:00:00",21.121801,79.04952,SO2,7,26,11
India,Maharashtra,Nagpur,"Ambazari, Nagpur - MPCB","04-04-2025 15:00:00",21.121801,79.04952,OZONE,1,96,41
India,Maharashtra,Nagpur,"Mahal, Nagpur - MPCB","04-04-2025 15:00:00",21.14472,79.107595,NO2,37,69,52
India,Maharashtra,Nagpur,"Opp GPO Civil Lines, Nagpur - MPCB","04-04-2025 15:00:00",21.152875,79.0517531,PM2.5,49,89,73
India,Maharashtra,Nagpur,"Opp GPO Civil Lines, Nagpur - MPCB","04-04-2025 15:00:00",21.152875,79.0517531,PM10,57,122,84
India,Maharashtra,Nagpur,"Opp GPO Civil Lines, Nagpur - MPCB","04-04-2025 15:00:00",21.152875,79.0517531,CO,24,115,36
India,Maharashtra,Nashik,"Hirawadi, Nashik - MPCB","04-04-2025 15:00:00",20.021503,73.813844,SO2,4,17,9
India,Maharashtra,Nashik,"MIDC Ambad, Nashik - MPCB","04-04-2025 15:00:00",19.950220,73.731480,PM2.5,50,311,141
India,Maharashtra,Mumbai,"Shivaji Nagar, Mumbai - BMC","04-04-2025 15:00:00",19.060498,72.923356,NH3,1,1,1
India,Maharashtra,Mumbai,"Shivaji Nagar, Mumbai - BMC","04-04-2025 15:00:00",19.060498,72.923356,OZONE,4,47,23
India,Maharashtra,Nagpur,"Ram Nagar, Nagpur - MPCB","04-04-2025 15:00:00",21.143383,79.048912,NH3,7,16,11
India,Maharashtra,Nagpur,"Ram Nagar, Nagpur - MPCB","04-04-2025 15:00:00",21.143383,79.048912,OZONE,1,50,29
India,Maharashtra,Mumbai,"Sewri, Mumbai - BMC","04-04-2025 15:00:00",19.000084,72.856730,CO,10,20,15
India,Maharashtra,Mumbai,"Sewri, Mumbai - BMC","04-04-2025 15:00:00",19.000084,72.856730,OZONE,12,32,22
India,Maharashtra,Pimpri-Chinchwad,"Park Street Wakad, Pimpri Chinchwad - MPCB","04-04-2025 15:00:00",18.59051,73.77946,PM10,NA,NA,NA
India,Maharashtra,Pimpri-Chinchwad,"Park Street Wakad, Pimpri Chinchwad - MPCB","04-04-2025 15:00:00",18.59051,73.77946,SO2,NA,NA,NA
India,Maharashtra,Pimpri-Chinchwad,"Savta Mali Nagar, Pimpri-Chinchwad - IITM","04-04-2025 15:00:00",18.614767,73.799516,PM2.5,64,330,116
India,Maharashtra,Pimpri-Chinchwad,"Savta Mali Nagar, Pimpri-Chinchwad - IITM","04-04-2025 15:00:00",18.614767,73.799516,NO2,22,113,67
India,Maharashtra,Pimpri-Chinchwad,"Thergaon, Pimpri Chinchwad - MPCB","04-04-2025 15:00:00",18.616318,73.765797,SO2,1,5,2
India,Maharashtra,Pune,"Bhosari, Pune - IITM","04-04-2025 15:00:00",18.640051,73.848956,PM2.5,47,89,73
India,Maharashtra,Pune,"Bhosari, Pune - IITM","04-04-2025 15:00:00",18.640051,73.848956,OZONE,1,88,46
India,Maharashtra,Pune,"Bhumkar Nagar, Pune - IITM","04-04-2025 15:00:00",18.605770,73.749976,PM2.5,43,192,67
India,Maharashtra,"Navi Mumbai","Sector-2E Kalamboli, Navi Mumbai - MPCB","04-04-2025 15:00:00",19.02579,73.10297,OZONE,3,48,22
India,Maharashtra,"Navi Mumbai","Tondare-Taloja, Navi Mumbai - MPCB","04-04-2025 15:00:00",19.0630,73.1209,SO2,1,3,1
India,Maharashtra,Parbhani,"Masoom Colony, Parbhani - MPCB","04-04-2025 15:00:00",19.265594,76.761463,PM2.5,18,45,34
India,Maharashtra,Parbhani,"Masoom Colony, Parbhani - MPCB","04-04-2025 15:00:00",19.265594,76.761463,NO2,10,29,16
India,Maharashtra,Parbhani,"Masoom Colony, Parbhani - MPCB","04-04-2025 15:00:00",19.265594,76.761463,SO2,20,33,23
India,Maharashtra,Pimpri-Chinchwad,"Gavalinagar, Pimpri Chinchwad - MPCB","04-04-2025 15:00:00",18.63673,73.82487,PM2.5,24,97,52
India,Maharashtra,Pimpri-Chinchwad,"Gavalinagar, Pimpri Chinchwad - MPCB","04-04-2025 15:00:00",18.63673,73.82487,NH3,6,9,8
India,Maharashtra,Pune,"Hadapsar, Pune - IITM","04-04-2025 15:00:00",18.501793,73.927532,PM2.5,30,140,56
India,Maharashtra,Pune,"Hadapsar, Pune - IITM","04-04-2025 15:00:00",18.501793,73.927532,PM10,41,175,86
India,Maharashtra,Pune,"Hadapsar, Pune - IITM","04-04-2025 15:00:00",18.501793,73.927532,OZONE,2,114,53
India,Maharashtra,Pune,"Katraj Dairy, Pune - MPCB","04-04-2025 15:00:00",18.454450,73.854155,PM2.5,NA,NA,NA
India,Maharashtra,Pune,"Katraj Dairy, Pune - MPCB","04-04-2025 15:00:00",18.454450,73.854155,PM10,NA,NA,NA
India,Maharashtra,Pune,"Mhada Colony, Pune - IITM","04-04-2025 15:00:00",18.573040,73.927715,PM10,117,164,129
India,Maharashtra,Nashik,"MIDC Ambad, Nashik - MPCB","04-04-2025 15:00:00",19.950220,73.731480,NH3,1,8,4
India,Maharashtra,Nashik,"Pandav Nagari, Nashik - MPCB","04-04-2025 15:00:00",19.9591346,73.7788008,SO2,NA,NA,NA
India,Maharashtra,Nashik,"Pandav Nagari, Nashik - MPCB","04-04-2025 15:00:00",19.9591346,73.7788008,CO,3,28,9
India,Maharashtra,Pune,"Revenue Colony-Shivajinagar, Pune - IITM","04-04-2025 15:00:00",18.530085,73.849598,PM10,110,153,132
India,Maharashtra,Pune,"Revenue Colony-Shivajinagar, Pune - IITM","04-04-2025 15:00:00",18.530085,73.849598,NO2,126,179,148
India,Maharashtra,"Navi Mumbai","Sector-2E Kalamboli, Navi Mumbai - MPCB","04-04-2025 15:00:00",19.02579,73.10297,PM2.5,48,102,59
India,Maharashtra,"Navi Mumbai","Sanpada, Navi Mumbai - MPCB","04-04-2025 15:00:00",19.0575752,73.0151367,NO2,17,53,29
India,Maharashtra,Pune,"Panchawati_Pashan, Pune - IITM","04-04-2025 15:00:00",18.536457,73.805454,PM2.5,45,82,61
India,Maharashtra,Pune,"Panchawati_Pashan, Pune - IITM","04-04-2025 15:00:00",18.536457,73.805454,NO2,17,55,35
India,Nagaland,Kohima,"PWD Juction, Kohima - NPCB","04-04-2025 15:00:00",25.6635413,94.0989878,CO,4,25,11
India,Odisha,Angul,"Hakimapada, Angul - OSPCB","04-04-2025 15:00:00",20.832874,85.104082,OZONE,5,59,34
India,Odisha,Balasore,"Kalidaspur, Balasore - OSPCB","04-04-2025 15:00:00",21.51161,86.89088,CO,36,55,49
India,Odisha,Barbil,"Forest Office, Barbil - OSPCB","04-04-2025 15:00:00",22.1166054,85.3945546,PM2.5,57,137,81
India,Odisha,Baripada,"Meher Colony, Baripada - OSPCB","04-04-2025 15:00:00",21.941841,86.728318,PM10,59,94,78
India,Maharashtra,Pune,"Savitribai Phule Pune University, Pune - MPCB","04-04-2025 15:00:00",18.547056,73.826908,CO,22,43,31
India,Maharashtra,Sangli,"Vijay Nagar, Sangli - MPCB","04-04-2025 15:00:00"," 16.5038",74.3623,CO,16,48,24
India,Maharashtra,Solapur,"Dnyaneshwar Nagar, Solapur - MPCB","04-04-2025 15:00:00",17.6336264,75.9132495,NO2,5,23,11
India,Maharashtra,Solapur,"Dnyaneshwar Nagar, Solapur - MPCB","04-04-2025 15:00:00",17.6336264,75.9132495,NH3,10,14,11
India,Maharashtra,Solapur,"Dnyaneshwar Nagar, Solapur - MPCB","04-04-2025 15:00:00",17.6336264,75.9132495,CO,11,23,15
India,Maharashtra,Virar,"Bolinj, Virar - MPCB","04-04-2025 15:00:00",19.4458210,72.7988231,NO2,9,36,20
India,Maharashtra,Virar,"Bolinj, Virar - MPCB","04-04-2025 15:00:00",19.4458210,72.7988231,SO2,NA,NA,NA
India,Maharashtra,Virar,"Bolinj, Virar - MPCB","04-04-2025 15:00:00",19.4458210,72.7988231,CO,12,101,46
India,Maharashtra,Solapur,"Ratandeep Housing Society, Solapur - MPCB","04-04-2025 15:00:00",17.65439,75.90649,CO,16,40,24
India,Maharashtra,Solapur,"Ratandeep Housing Society, Solapur - MPCB","04-04-2025 15:00:00",17.65439,75.90649,OZONE,24,68,44
India,Maharashtra,Ulhasnagar,"Sidhi Vinayak Nagar, Ulhasnagar - MPCB","04-04-2025 15:00:00",19.235581,73.159121,CO,10,30,22
India,Maharashtra,Thane,"Kasarvadavali, Thane - MPCB","04-04-2025 15:00:00",19.26777,72.97182,OZONE,1,11,5
India,Mizoram,Aizawl,"Sikulpuikawn, Aizawl - Mizoram PCB","04-04-2025 15:00:00",23.7176342,92.7192841,CO,3,3,3
India,Maharashtra,Virar,"Bolinj, Virar - MPCB","04-04-2025 15:00:00",19.4458210,72.7988231,OZONE,5,28,18
India,Odisha,Baripada,"Meher Colony, Baripada - OSPCB","04-04-2025 15:00:00",21.941841,86.728318,SO2,20,33,27
India,Odisha,Bhubaneswar,"Patia, Bhubaneswar - OSPCB","04-04-2025 15:00:00",20.34652,85.81630,PM10,32,113,64
India,Odisha,Bhubaneswar,"Patia, Bhubaneswar - OSPCB","04-04-2025 15:00:00",20.34652,85.81630,SO2,2,65,13
India,Odisha,Bhubaneswar,"Patia, Bhubaneswar - OSPCB","04-04-2025 15:00:00",20.34652,85.81630,CO,20,42,38
India,Odisha,Bileipada,"Tata Township, Bileipada - OSPCB","04-04-2025 15:00:00",22.06156703,85.47409613,CO,24,56,54
India,Odisha,Brajrajnagar,"GM Office, Brajrajnagar - OSPCB","04-04-2025 15:00:00",21.8004996,83.8396977,PM2.5,24,93,51
India,Odisha,Brajrajnagar,"GM Office, Brajrajnagar - OSPCB","04-04-2025 15:00:00",21.8004996,83.8396977,CO,32,64,43
India,Punjab,Amritsar,"Golden Temple, Amritsar - PPCB","04-04-2025 15:00:00",31.620000,74.876512,CO,10,111,52
India,Punjab,Bathinda,"Hardev Nagar, Bathinda - PPCB","04-04-2025 15:00:00",30.233011,74.907758,PM2.5,29,107,56
India,Punjab,Bathinda,"Hardev Nagar, Bathinda - PPCB","04-04-2025 15:00:00",30.233011,74.907758,NO2,22,24,23
India,Punjab,Jalandhar,"Civil Line, Jalandhar - PPCB","04-04-2025 15:00:00",31.321907,75.578914,NH3,2,4,4
India,Punjab,Jalandhar,"Civil Line, Jalandhar - PPCB","04-04-2025 15:00:00",31.321907,75.578914,CO,34,45,40
India,Puducherry,Puducherry,"Jawahar Nagar, Puducherry - PPCC","04-04-2025 15:00:00",11.9309,79.8027,NO2,4,46,20
India,Punjab,Amritsar,"Golden Temple, Amritsar - PPCB","04-04-2025 15:00:00",31.620000,74.876512,NO2,11,92,35
India,Odisha,Keonjhar,"Jagamohanpur, Keonjhar - OSPCB","04-04-2025 15:00:00",21.643900,85.599355,NO2,1,13,6
India,Odisha,Keonjhar,"Jagamohanpur, Keonjhar - OSPCB","04-04-2025 15:00:00",21.643900,85.599355,NH3,5,8,6
India,Odisha,Nayagarh,"Dabuna, Nayagarh - OSPCB","04-04-2025 15:00:00",21.847279,85.416905,SO2,1,4,2
India,Punjab,Patiala,"Model Town, Patiala - PPCB","04-04-2025 15:00:00",30.349388,76.366642,NO2,17,46,24
India,Punjab,Rupnagar,"Ratanpura, Rupnagar - Ambuja Cements","04-04-2025 15:00:00",31.0325454,76.5623046,NO2,15,21,16
India,Odisha,Rourkela,"Fertilizer Township, Rourkela - OSPCB","04-04-2025 15:00:00",22.18972222,84.86277778,SO2,20,25,22
India,Odisha,Rourkela,"Raghunathpali, Rourkela - OSPCB","04-04-2025 15:00:00",22.220833,84.809444,CO,54,94,68
India,Odisha,Rairangpur,"Divisional Forest Office, Rairangpur - OSPCB","04-04-2025 15:00:00",22.265816,86.174829,PM2.5,68,137,98
India,Odisha,Rairangpur,"Divisional Forest Office, Rairangpur - OSPCB","04-04-2025 15:00:00",22.265816,86.174829,SO2,8,21,14
India,Odisha,Talcher,"Talcher Coalfields,Talcher - OSPCB","04-04-2025 15:00:00",20.9360711,85.1707021,PM2.5,28,240,107
India,Odisha,Talcher,"Talcher Coalfields,Talcher - OSPCB","04-04-2025 15:00:00",20.9360711,85.1707021,PM10,53,244,117
India,Punjab,Patiala,"Model Town, Patiala - PPCB","04-04-2025 15:00:00",30.349388,76.366642,PM10,70,121,104
India,Rajasthan,Bundi,"New Colony, Bundi - RSPCB","04-04-2025 15:00:00",25.435774,75.644272,OZONE,20,200,93
India,Rajasthan,Chittorgarh,"Shastri Nagar, Chittorgarh - RSPCB","04-04-2025 15:00:00",24.892047,74.623527,NO2,8,107,56
India,Rajasthan,Churu,"Subash Chowk, Churu - RSPCB","04-04-2025 15:00:00",28.296139,74.961696,CO,4,12,9
India,Rajasthan,Dausa,"Khatikan Mohalla, Dausa - RSPCB","04-04-2025 15:00:00",26.895552,76.334753,PM2.5,29,133,57
India,Rajasthan,Dausa,"Khatikan Mohalla, Dausa - RSPCB","04-04-2025 15:00:00",26.895552,76.334753,CO,31,120,49
India,Rajasthan,Dholpur,"Raja Ganj, Dholpur - RSPCB","04-04-2025 15:00:00",26.699557,77.898881,OZONE,69,94,85
India,Rajasthan,Dungarpur,"Bhoiwada, Dungarpur - RSPCB","04-04-2025 15:00:00",23.837789,73.714926,PM10,65,151,97
India,Rajasthan,Hanumangarh,"Housing Board, Hanumangarh - RSPCB","04-04-2025 15:00:00",29.610750,74.283608,PM2.5,52,177,87
India,Rajasthan,Bundi,"New Colony, Bundi - RSPCB","04-04-2025 15:00:00",25.435774,75.644272,PM2.5,27,171,92
India,Rajasthan,Bundi,"New Colony, Bundi - RSPCB","04-04-2025 15:00:00",25.435774,75.644272,PM10,105,270,159
India,Rajasthan,Bhilwara,"Pratap Nagar, Bhilwara - RSPCB","04-04-2025 15:00:00",25.339605,74.618883,NH3,1,7,4
India,Rajasthan,Bhilwara,"Pratap Nagar, Bhilwara - RSPCB","04-04-2025 15:00:00",25.339605,74.618883,SO2,16,52,35
India,Rajasthan,Bhiwadi,"RIICO Ind. Area III, Bhiwadi - RSPCB","04-04-2025 15:00:00",28.194909,76.862296,PM10,52,296,172
India,Rajasthan,Hanumangarh,"Housing Board, Hanumangarh - RSPCB","04-04-2025 15:00:00",29.610750,74.283608,OZONE,12,83,51
India,Rajasthan,Bharatpur,"Krishna Nagar, Bharatpur - RSPCB","04-04-2025 15:00:00",27.215415,77.50873,OZONE,14,134,87
India,Rajasthan,Banswara,"Rati Talai, Banswara - RSPCB","04-04-2025 15:00:00",23.555190,74.440010,OZONE,7,168,67
India,Rajasthan,Alwar,"Moti Doongri, Alwar - RSPCB","04-04-2025 15:00:00",27.554793,76.611536,PM2.5,29,74,52
India,Rajasthan,Jodhpur,"Digari Kalan, Jodhpur - RSPCB","04-04-2025 15:00:00",26.295810,73.082283,CO,12,107,27
India,Rajasthan,Jodhpur,"Jhalamand, Jodhpur - RSPCB","04-04-2025 15:00:00",26.215415,73.070156,PM10,29,484,183
India,Rajasthan,Jodhpur,"Jhalamand, Jodhpur - RSPCB","04-04-2025 15:00:00",26.215415,73.070156,NH3,5,26,14
India,Rajasthan,Jodhpur,"Jhalamand, Jodhpur - RSPCB","04-04-2025 15:00:00",26.215415,73.070156,OZONE,14,145,75
India,Rajasthan,Jodhpur,"Mandor, Jodhpur - RSPCB","04-04-2025 15:00:00",26.358805,73.047444,PM2.5,2,79,40
India,Rajasthan,Jodhpur,"Mandor, Jodhpur - RSPCB","04-04-2025 15:00:00",26.358805,73.047444,PM10,45,176,99
India,Rajasthan,Jodhpur,"Mandor, Jodhpur - RSPCB","04-04-2025 15:00:00",26.358805,73.047444,NO2,18,88,44
India,Rajasthan,Jaipur,"RIICO Sitapura, Jaipur - RSPCB","04-04-2025 15:00:00",26.786682,75.827928,PM10,51,308,122
India,Rajasthan,Jaipur,"RIICO Sitapura, Jaipur - RSPCB","04-04-2025 15:00:00",26.786682,75.827928,NH3,2,3,3
India,Rajasthan,Jaipur,"Sector-2 Murlipura, Jaipur - RSPCB","04-04-2025 15:00:00",26.960669,75.771817,NH3,2,11,4
India,Rajasthan,Jaipur,"Shastri Nagar, Jaipur - RSPCB","04-04-2025 15:00:00",26.9502929,75.730943,PM2.5,47,139,79
India,Rajasthan,Jodhpur,"Samrat Ashok Udhyan, Jodhpur - RSPCB","04-04-2025 15:00:00",26.253384,72.976571,SO2,1,40,10
India,Rajasthan,Jodhpur,"Samrat Ashok Udhyan, Jodhpur - RSPCB","04-04-2025 15:00:00",26.253384,72.976571,CO,13,123,34
India,Rajasthan,Karauli,"Satyawati Vihar, Karauli - RSPCB","04-04-2025 15:00:00",26.506177,77.025989,OZONE,6,182,166
India,Rajasthan,Jaisalmer,"Sadar Bazar, Jaisalmer - RSPCB","04-04-2025 15:00:00",26.912329,70.909168,OZONE,62,129,86
India,Rajasthan,Jalore,"Mudtra Sili, Jalore - RSPCB","04-04-2025 15:00:00",25.344694,72.626208,PM2.5,26,257,67
India,Rajasthan,Jaipur,"Adarsh Nagar, Jaipur - RSPCB","04-04-2025 15:00:00",26.902909,75.836858,OZONE,41,67,51
India,Rajasthan,Jaipur,"Mansarovar Sector-12, Jaipur - RSPCB","04-04-2025 15:00:00",26.843698,75.766894,OZONE,8,148,88
India,Rajasthan,Jaisalmer,"Sadar Bazar, Jaisalmer - RSPCB","04-04-2025 15:00:00",26.912329,70.909168,NO2,4,39,11
India,Rajasthan,Jaisalmer,"Sadar Bazar, Jaisalmer - RSPCB","04-04-2025 15:00:00",26.912329,70.909168,NH3,2,26,12
India,Rajasthan,Jhalawar,"Rajlaxmi Nagar, Jhalawar - RSPCB","04-04-2025 15:00:00",24.588397,76.172782,PM2.5,29,157,77
India,Rajasthan,Nagaur,"Karni Colony, Nagaur - RSPCB","04-04-2025 15:00:00",27.213494,73.734444,CO,17,54,28
India,Rajasthan,Kota,"Dhanmandi, Kota - RSPCB","04-04-2025 15:00:00",25.164090,75.858137,NO2,30,120,75
India,Rajasthan,Sirohi,"Vedhaynath Colony, Sirohi - RSPCB","04-04-2025 15:00:00",24.885261,72.857549,NO2,5,75,28
India,Rajasthan,"Sri Ganganagar","Old City, Sri Ganganagar - RSPCB","04-04-2025 15:00:00",29.931624,73.864511,PM2.5,40,137,67
India,Rajasthan,"Sawai Madhopur","Sahu Nagar, Sawai Madhopur - RSPCB","04-04-2025 15:00:00",26.031443,76.359327,NO2,9,22,14
India,Rajasthan,"Sawai Madhopur","Sahu Nagar, Sawai Madhopur - RSPCB","04-04-2025 15:00:00",26.031443,76.359327,OZONE,52,211,130
India,TamilNadu,Chengalpattu,"Crescent University, Chengalpattu - TNPCB","04-04-2025 15:00:00",12.8777316,80.0834807,SO2,15,16,16
India,TamilNadu,Chennai,"Alandur Bus Depot, Chennai - CPCB","04-04-2025 15:00:00",12.9099161,80.1076538,PM10,16,19,17
India,Rajasthan,Pratapgarh,"Pragati Nagar, Pratapgarh - RSPCB","04-04-2025 15:00:00",24.041198,74.780702,SO2,5,23,13
India,Rajasthan,Udaipur,"Ashok Nagar, Udaipur - RSPCB","04-04-2025 15:00:00",24.5886166,73.6321397,CO,4,113,41
India,Sikkim,Gangtok,"Zero Point GICI, Gangtok - SSPCB","04-04-2025 15:00:00",27.338530,88.614099,NO2,1,15,5
India,Rajasthan,Rajsamand,"Dhoinda, Rajsamand - RSPCB","04-04-2025 15:00:00",25.036360,73.883502,CO,10,84,20
India,TamilNadu,Ariyalur,"Keelapalur, Ariyalur - TNPCB","04-04-2025 15:00:00",11.06825,79.07033,SO2,9,10,10
India,TamilNadu,Cuddalore,"Kudikadu, Cuddalore - TNPCB","04-04-2025 15:00:00",11.6829898,79.7532099,PM10,8,40,23
India,TamilNadu,Cuddalore,"Kudikadu, Cuddalore - TNPCB","04-04-2025 15:00:00",11.6829898,79.7532099,OZONE,4,4,4
India,TamilNadu,Cuddalore,"Semmandalam, Cuddalore - TNPCB","04-04-2025 15:00:00",11.7637683,79.7499835,PM2.5,NA,NA,NA
India,TamilNadu,Cuddalore,"Semmandalam, Cuddalore - TNPCB","04-04-2025 15:00:00",11.7637683,79.7499835,PM10,NA,NA,NA
India,TamilNadu,Dindigul,"Mendonsa Colony, Dindigul - TNPCB","04-04-2025 15:00:00",10.358535,77.984321,PM2.5,9,43,21
India,TamilNadu,Coimbatore,"PSG College of Arts and Science, Coimbatore - TNPCB","04-04-2025 15:00:00",11.0328,77.0349,NH3,2,2,2
India,TamilNadu,Coimbatore,"SIDCO Kurichi, Coimbatore - TNPCB","04-04-2025 15:00:00",10.942451,76.978996,PM10,20,52,32
India,TamilNadu,Chennai,"Kodungaiyur, Chennai - TNPCB","04-04-2025 15:00:00",13.1278,80.2642,NO2,10,21,16
India,TamilNadu,Chennai,"Kodungaiyur, Chennai - TNPCB","04-04-2025 15:00:00",13.1278,80.2642,NH3,4,5,4
India,TamilNadu,Chennai,"Kodungaiyur, Chennai - TNPCB","04-04-2025 15:00:00",13.1278,80.2642,SO2,1,7,4
India,TamilNadu,Coimbatore,"PSG College of Arts and Science, Coimbatore - TNPCB","04-04-2025 15:00:00",11.0328,77.0349,PM2.5,19,47,35
India,TamilNadu,Chennai,"Velachery Res. Area, Chennai - CPCB","04-04-2025 15:00:00",13.0052189,80.2398125,NH3,4,6,6
India,TamilNadu,Chennai,"Kodungaiyur, Chennai - TNPCB","04-04-2025 15:00:00",13.1278,80.2642,PM2.5,14,53,26
India,TamilNadu,Chennai,"Royapuram, Chennai - TNPCB","04-04-2025 15:00:00",13.1036,80.2909,PM10,28,104,53
India,TamilNadu,Chennai,"Perungudi, Chennai - TNPCB","04-04-2025 15:00:00",12.9533,80.2357,PM10,42,97,59
India,TamilNadu,Chennai,"Manali, Chennai - CPCB","04-04-2025 15:00:00",13.164544,80.26285,NO2,8,27,16
India,TamilNadu,Ranipet,"VOC Nagar_SIPCOT, Ranipet - TNPCB","04-04-2025 15:00:00",12.952707,79.30394,SO2,NA,NA,NA
India,TamilNadu,Salem,"Sona College of Technology, Salem - TNPCB","04-04-2025 15:00:00",11.679111,78.125052,PM2.5,5,45,21
India,TamilNadu,Salem,"Sona College of Technology, Salem - TNPCB","04-04-2025 15:00:00",11.679111,78.125052,NH3,3,3,3
India,TamilNadu,Thanjavur,"Parisutham Nagar, Thanjavur - TNPCB","04-04-2025 15:00:00",10.7654824,79.1389968,PM2.5,21,56,34
India,TamilNadu,Gummidipoondi,"Anthoni Pillai Nagar, Gummidipoondi - TNPCB","04-04-2025 15:00:00",13.4127,80.1081,NO2,6,28,19
India,TamilNadu,Gummidipoondi,"Anthoni Pillai Nagar, Gummidipoondi - TNPCB","04-04-2025 15:00:00",13.4127,80.1081,NH3,2,14,4
India,TamilNadu,Gummidipoondi,"Anthoni Pillai Nagar, Gummidipoondi - TNPCB","04-04-2025 15:00:00",13.4127,80.1081,SO2,3,103,30
India,TamilNadu,Hosur,"SIPCOT Phase-1, Hosur - TNPCB","04-04-2025 15:00:00",12.746998,77.813811,NH3,1,1,1
India,TamilNadu,Thoothukudi,"Meelavittan, Thoothukudi - TNPCB","04-04-2025 15:00:00","8.816428 ",78.099039,SO2,8,17,12
India,TamilNadu,Thoothukudi,"Meelavittan, Thoothukudi - TNPCB","04-04-2025 15:00:00","8.816428 ",78.099039,CO,2,38,18
India,TamilNadu,Tiruchirappalli,"St Joseph College, Tiruchirappalli - TNPCB","04-04-2025 15:00:00",10.830158,78.691849,PM10,NA,NA,NA
India,TamilNadu,Tiruchirappalli,"St Joseph College, Tiruchirappalli - TNPCB","04-04-2025 15:00:00",10.830158,78.691849,NH3,NA,NA,NA
India,TamilNadu,Nagapattinam,"Velippalayam, Nagapattinam - TNPCB","04-04-2025 15:00:00",10.798548,79.838212,SO2,4,11,7
India,TamilNadu,Palkalaiperur,"Bharathidasan University, Palkalaiperur - TNPCB","04-04-2025 15:00:00",10.681158,78.741746,PM10,4,36,17
India,TamilNadu,Palkalaiperur,"Bharathidasan University, Palkalaiperur - TNPCB","04-04-2025 15:00:00",10.681158,78.741746,SO2,8,9,9
India,TamilNadu,Pudukottai,"SIPCOT Nathampannai, Pudukottai - TNPCB","04-04-2025 15:00:00",10.423417,78.784889,PM2.5,NA,NA,NA
India,TamilNadu,Ramanathapuram,"Chalai Bazaar, Ramanathapuram - TNPCB","04-04-2025 15:00:00",9.36399,78.831977,NH3,1,1,1
India,TamilNadu,Thanjavur,"Parisutham Nagar, Thanjavur - TNPCB","04-04-2025 15:00:00",10.7654824,79.1389968,OZONE,6,19,12
India,TamilNadu,Thoothukudi,"Meelavittan, Thoothukudi - TNPCB","04-04-2025 15:00:00","8.816428 ",78.099039,NO2,3,6,5
India,TamilNadu,Karur,"Kamadenu Nagar, Karur - TNPCB","04-04-2025 15:00:00",10.967820,78.080882,SO2,32,37,34
India,TamilNadu,Madurai,"Uchapatti, Madurai - TNPCB","04-04-2025 15:00:00",9.865935,78.022669,PM2.5,NA,NA,NA
India,TamilNadu,Madurai,"Uchapatti, Madurai - TNPCB","04-04-2025 15:00:00",9.865935,78.022669,PM10,NA,NA,NA
India,TamilNadu,Vellore,"Vasanthapuram, Vellore - TNPCB","04-04-2025 15:00:00",12.909494,79.131861,PM10,18,67,39
India,TamilNadu,Vellore,"Vasanthapuram, Vellore - TNPCB","04-04-2025 15:00:00",12.909494,79.131861,SO2,15,16,16
India,TamilNadu,Tirunelveli,"Municipal Corporation Office, Tirunelveli - TNPCB","04-04-2025 15:00:00",8.728442,77.6962,OZONE,6,7,6
India,Telangana,Hyderabad,"ICRISAT Patancheru, Hyderabad - TSPCB","04-04-2025 15:00:00",17.518400,78.278777,SO2,2,37,15
India,Telangana,Hyderabad,"IDA Pashamylaram, Hyderabad - TSPCB","04-04-2025 15:00:00",17.5316895,78.218939,NO2,23,48,30
India,Telangana,Hyderabad,"IDA Pashamylaram, Hyderabad - TSPCB","04-04-2025 15:00:00",17.5316895,78.218939,CO,22,122,44
India,Telangana,Hyderabad,"IITH Kandi, Hyderabad - TSPCB","04-04-2025 15:00:00",17.585705,78.126199,PM2.5,NA,NA,NA
India,Telangana,Hyderabad,"IITH Kandi, Hyderabad - TSPCB","04-04-2025 15:00:00",17.585705,78.126199,CO,24,36,32
India,Telangana,Hyderabad,"IITH Kandi, Hyderabad - TSPCB","04-04-2025 15:00:00",17.585705,78.126199,OZONE,28,33,28
India,Telangana,Hyderabad,"Kokapet, Hyderabad - TSPCB","04-04-2025 15:00:00",17.393559,78.339194,SO2,NA,NA,NA
India,Telangana,Hyderabad,"Kompally Municipal Office, Hyderabad - TSPCB","04-04-2025 15:00:00",17.544899,78.486949,PM2.5,52,60,55
India,Telangana,Hyderabad,"Bollaram Industrial Area, Hyderabad - TSPCB","04-04-2025 15:00:00",17.540891,78.358528,SO2,1,10,6
India,Telangana,Hyderabad,"Bollaram Industrial Area, Hyderabad - TSPCB","04-04-2025 15:00:00",17.540891,78.358528,OZONE,50,53,51
India,Telangana,Hyderabad,"Central University, Hyderabad - TSPCB","04-04-2025 15:00:00",17.460103,78.334361,NO2,7,45,22
India,Telangana,Hyderabad,"Central University, Hyderabad - TSPCB","04-04-2025 15:00:00",17.460103,78.334361,NH3,1,7,4
India,Telangana,Hyderabad,"Central University, Hyderabad - TSPCB","04-04-2025 15:00:00",17.460103,78.334361,CO,26,36,31
India,Telangana,Hyderabad,"ECIL Kapra, Hyderabad - TSPCB","04-04-2025 15:00:00",17.470431,78.566959,CO,34,57,40
India,Telangana,Hyderabad,"Kompally Municipal Office, Hyderabad - TSPCB","04-04-2025 15:00:00",17.544899,78.486949,SO2,5,18,8
India,Telangana,Hyderabad,"Kompally Municipal Office, Hyderabad - TSPCB","04-04-2025 15:00:00",17.544899,78.486949,CO,22,26,23
India,Telangana,Hyderabad,"Nacharam_TSIIC IALA, Hyderabad - TSPCB","04-04-2025 15:00:00",17.429398,78.569354,PM2.5,46,55,49
India,Telangana,Hyderabad,"Nacharam_TSIIC IALA, Hyderabad - TSPCB","04-04-2025 15:00:00",17.429398,78.569354,OZONE,9,49,20
India,Telangana,Hyderabad,"New Malakpet, Hyderabad - TSPCB","04-04-2025 15:00:00",17.37206,78.50864,PM2.5,NA,NA,NA
India,TamilNadu,Vellore,"Vasanthapuram, Vellore - TNPCB","04-04-2025 15:00:00",12.909494,79.131861,OZONE,11,53,33
India,TamilNadu,Virudhunagar,"Collectorate Office, Virudhunagar - TNPCB","04-04-2025 15:00:00",9.559382,77.948828,PM10,13,36,25
India,TamilNadu,Virudhunagar,"Collectorate Office, Virudhunagar - TNPCB","04-04-2025 15:00:00",9.559382,77.948828,SO2,18,19,19
India,Telangana,Hyderabad,"Bollaram Industrial Area, Hyderabad - TSPCB","04-04-2025 15:00:00",17.540891,78.358528,PM2.5,5,37,21
India,Telangana,Hyderabad,"New Malakpet, Hyderabad - TSPCB","04-04-2025 15:00:00",17.37206,78.50864,CO,6,42,28
India,Telangana,Hyderabad,"Ramachandrapuram, Hyderabad - TSPCB","04-04-2025 15:00:00",17.528544,78.286195,PM10,47,64,58
India,Telangana,Hyderabad,"Ramachandrapuram, Hyderabad - TSPCB","04-04-2025 15:00:00",17.528544,78.286195,OZONE,13,50,25
India,Telangana,Hyderabad,"Sanathnagar, Hyderabad - TSPCB","04-04-2025 15:00:00",17.4559458,78.4332152,NO2,21,30,26
India,Telangana,Hyderabad,"ICRISAT Patancheru, Hyderabad - TSPCB","04-04-2025 15:00:00",17.518400,78.278777,NO2,2,89,13
India,Uttar_Pradesh,Agra,"Manoharpur, Agra - UPPCB","04-04-2025 15:00:00",27.23711,78.01936,PM10,21,139,59
India,Telangana,Hyderabad,"Zoo Park, Hyderabad - TSPCB","04-04-2025 15:00:00",17.349694,78.451437,CO,1,14,10
India,Uttar_Pradesh,Agra,"Shahjahan Garden, Agra - UPPCB","04-04-2025 15:00:00",27.169338,78.03582,NH3,NA,NA,NA
India,Uttar_Pradesh,Agra,"Shahjahan Garden, Agra - UPPCB","04-04-2025 15:00:00",27.169338,78.03582,CO,9,78,10
India,Uttar_Pradesh,Agra,"Shahjahan Garden, Agra - UPPCB","04-04-2025 15:00:00",27.169338,78.03582,OZONE,3,66,62
India,Uttar_Pradesh,Agra,"Shastripuram, Agra - UPPCB","04-04-2025 15:00:00",27.19862,77.92066,PM2.5,14,92,39
India,Uttar_Pradesh,Agra,"Shastripuram, Agra - UPPCB","04-04-2025 15:00:00",27.19862,77.92066,PM10,NA,NA,NA
India,Uttar_Pradesh,Baghpat,"Sardar Patel Inter College, Baghpat - UPPCB","04-04-2025 15:00:00",28.964949,77.278761,CO,8,106,72
India,Uttar_Pradesh,Baghpat,"Sardar Patel Inter College, Baghpat - UPPCB","04-04-2025 15:00:00",28.964949,77.278761,OZONE,5,69,40
India,Uttar_Pradesh,Bareilly,"Civil Lines, Bareilly - UPPCB","04-04-2025 15:00:00",28.359581,79.414455,NO2,1,4,2
India,Uttar_Pradesh,Bareilly,"Civil Lines, Bareilly - UPPCB","04-04-2025 15:00:00",28.359581,79.414455,NH3,1,2,1
India,Uttar_Pradesh,Firozabad,"Nagla Bhau, Firozabad - UPPCB","04-04-2025 15:00:00",27.168897,78.376960,SO2,23,44,28
India,Uttar_Pradesh,Firozabad,"Vibhab Nagar, Firozabad - UPPCB","04-04-2025 15:00:00",27.1594,78.3953,NO2,15,15,15
India,Uttar_Pradesh,Firozabad,"Vibhab Nagar, Firozabad - UPPCB","04-04-2025 15:00:00",27.1594,78.3953,NH3,2,2,2
India,Uttar_Pradesh,Firozabad,"Vibhab Nagar, Firozabad - UPPCB","04-04-2025 15:00:00",27.1594,78.3953,OZONE,14,149,43
India,Uttar_Pradesh,Agra,"Sector-3B Avas Vikas Colony, Agra - UPPCB","04-04-2025 15:00:00",27.19412,77.96237,CO,22,57,25
India,Uttar_Pradesh,Agra,"Shahjahan Garden, Agra - UPPCB","04-04-2025 15:00:00",27.169338,78.03582,PM2.5,NA,NA,NA
India,Uttar_Pradesh,Agra,"Manoharpur, Agra - UPPCB","04-04-2025 15:00:00",27.23711,78.01936,SO2,5,13,7
India,Uttar_Pradesh,Agra,"Manoharpur, Agra - UPPCB","04-04-2025 15:00:00",27.23711,78.01936,CO,5,18,11
India,Uttar_Pradesh,Agra,"Manoharpur, Agra - UPPCB","04-04-2025 15:00:00",27.23711,78.01936,OZONE,7,57,31
India,Uttar_Pradesh,Baghpat,"Sardar Patel Inter College, Baghpat - UPPCB","04-04-2025 15:00:00",28.964949,77.278761,NH3,2,23,5
India,Uttar_Pradesh,Bulandshahr,"Yamunapuram, Bulandshahr - UPPCB","04-04-2025 15:00:00",28.406963,77.849831,PM2.5,19,312,147
India,Uttar_Pradesh,Agra,"Sanjay Palace, Agra - UPPCB","04-04-2025 15:00:00",27.19865833,78.00598056,OZONE,5,116,86
India,Uttar_Pradesh,Bareilly,"Rajendra Nagar, Bareilly - UPPCB","04-04-2025 15:00:00",28.38910936,79.42963708,NO2,2,2,2
India,Uttar_Pradesh,Gorakhpur,"Madan Mohan Malaviya University of Technology, Gorakhpur - UPPCB","04-04-2025 15:00:00",26.730136,83.433859,NO2,11,11,11
India,Uttar_Pradesh,Gorakhpur,"Madan Mohan Malaviya University of Technology, Gorakhpur - UPPCB","04-04-2025 15:00:00",26.730136,83.433859,CO,7,10,9
India,Uttar_Pradesh,"Greater Noida","Knowledge Park - III, Greater Noida - UPPCB","04-04-2025 15:00:00",28.47272,77.482000,PM10,33,203,122
India,Uttar_Pradesh,"Greater Noida","Knowledge Park - III, Greater Noida - UPPCB","04-04-2025 15:00:00",28.47272,77.482000,NH3,NA,NA,NA
India,Uttar_Pradesh,"Greater Noida","Knowledge Park - V, Greater Noida - UPPCB","04-04-2025 15:00:00",28.557054,77.453663,PM2.5,83,500,358
India,Uttar_Pradesh,"Greater Noida","Knowledge Park - V, Greater Noida - UPPCB","04-04-2025 15:00:00",28.557054,77.453663,NO2,25,167,106
India,Uttar_Pradesh,"Greater Noida","Knowledge Park - V, Greater Noida - UPPCB","04-04-2025 15:00:00",28.557054,77.453663,SO2,3,77,26
India,Uttar_Pradesh,Kanpur,"NSI Kalyanpur, Kanpur - UPPCB","04-04-2025 15:00:00",26.509954,80.249612,NO2,24,24,24
India,Uttar_Pradesh,Kanpur,"NSI Kalyanpur, Kanpur - UPPCB","04-04-2025 15:00:00",26.509954,80.249612,OZONE,16,17,16
India,Uttar_Pradesh,Khurja,"Kalindi Kunj, Khurja - UPPCB","04-04-2025 15:00:00",28.2348927,77.8683002,PM10,NA,NA,NA
India,Uttar_Pradesh,Khurja,"Kalindi Kunj, Khurja - UPPCB","04-04-2025 15:00:00",28.2348927,77.8683002,NO2,NA,NA,NA
India,Uttar_Pradesh,Lucknow,"B R Ambedkar University, Lucknow - UPPCB","04-04-2025 15:00:00",26.766433,80.927299,PM2.5,23,224,91
India,Uttar_Pradesh,Lucknow,"B R Ambedkar University, Lucknow - UPPCB","04-04-2025 15:00:00",26.766433,80.927299,NH3,2,10,4
India,Uttar_Pradesh,Lucknow,"B R Ambedkar University, Lucknow - UPPCB","04-04-2025 15:00:00",26.766433,80.927299,SO2,21,32,27
India,Uttar_Pradesh,Lucknow,"B R Ambedkar University, Lucknow - UPPCB","04-04-2025 15:00:00",26.766433,80.927299,OZONE,2,103,78
India,Uttar_Pradesh,Lucknow,"Gomti Nagar, Lucknow - UPPCB","04-04-2025 15:00:00",26.868120,81.005119,PM10,40,120,76
India,Uttar_Pradesh,Lucknow,"Kendriya Vidyalaya, Lucknow - CPCB","04-04-2025 15:00:00",26.906111,80.948222,PM2.5,47,358,212
India,Uttar_Pradesh,Lucknow,"Kukrail Picnic Spot-1, Lucknow - UPPCB","04-04-2025 15:00:00",26.90723,80.98579,PM2.5,16,405,115
India,Uttar_Pradesh,Lucknow,"Kukrail Picnic Spot-1, Lucknow - UPPCB","04-04-2025 15:00:00",26.90723,80.98579,NH3,4,4,4
India,Uttar_Pradesh,Lucknow,"Lalbagh, Lucknow - CPCB","04-04-2025 15:00:00",26.8458805,80.9365541,PM10,95,290,190
India,Uttar_Pradesh,Lucknow,"Kendriya Vidyalaya, Lucknow - CPCB","04-04-2025 15:00:00",26.906111,80.948222,NO2,36,49,42
India,Uttar_Pradesh,Lucknow,"Kendriya Vidyalaya, Lucknow - CPCB","04-04-2025 15:00:00",26.906111,80.948222,NH3,3,20,14
India,Uttar_Pradesh,Lucknow,"Kendriya Vidyalaya, Lucknow - CPCB","04-04-2025 15:00:00",26.906111,80.948222,CO,16,142,50
India,Uttar_Pradesh,Ghaziabad,"Indirapuram, Ghaziabad - UPPCB","04-04-2025 15:00:00",28.646233,77.358075,NO2,19,425,135
India,Uttar_Pradesh,Ghaziabad,"Loni, Ghaziabad - UPPCB","04-04-2025 15:00:00",28.757294,77.278792,SO2,4,41,21
India,Uttar_Pradesh,Kanpur,"FTI Kidwai Nagar, Kanpur - UPPCB","04-04-2025 15:00:00",26.428282,80.327067,PM10,58,241,113
India,Uttar_Pradesh,Jhansi,"Shivaji Nagar, Jhansi - UPPCB","04-04-2025 15:00:00",25.4547,78.6039,PM2.5,41,473,150
India,Uttar_Pradesh,Ghaziabad,"Loni, Ghaziabad - UPPCB","04-04-2025 15:00:00",28.757294,77.278792,OZONE,1,114,70
India,Uttar_Pradesh,Noida,"Sector - 125, Noida - UPPCB","04-04-2025 15:00:00",28.5447608,77.3231257,CO,18,116,61
India,Uttar_Pradesh,Noida,"Sector - 62, Noida - IMD","04-04-2025 15:00:00",28.6245479,77.3577104,OZONE,15,75,53
India,Uttar_Pradesh,Noida,"Sector-1, Noida - UPPCB","04-04-2025 15:00:00",28.5898,77.3101,NO2,14,103,49
India,Uttar_Pradesh,Noida,"Sector-1, Noida - UPPCB","04-04-2025 15:00:00",28.5898,77.3101,OZONE,1,164,125
India,Uttar_Pradesh,Noida,"Sector-116, Noida - UPPCB","04-04-2025 15:00:00",28.569230,77.393848,CO,1,120,31
India,Uttar_Pradesh,Lucknow,"Talkatora District Industries Center, Lucknow - CPCB","04-04-2025 15:00:00",26.83399722,80.8917361,SO2,2,70,11
India,Uttar_Pradesh,Meerut,"Ganga Nagar, Meerut - UPPCB","04-04-2025 15:00:00",28.999264,77.7590354,OZONE,25,199,136
India,Uttar_Pradesh,Meerut,"Jai Bhim Nagar, Meerut - UPPCB","04-04-2025 15:00:00",28.9535882,77.7622941,SO2,1,8,4
India,Uttar_Pradesh,Moradabad,"Jigar Colony, Moradabad - UPPCB","04-04-2025 15:00:00",28.856664,78.772638,NH3,6,7,6
India,Uttar_Pradesh,Moradabad,"Kashiram Nagar, Moradabad - UPPCB","04-04-2025 15:00:00",28.849399,78.742362,NO2,23,28,25
India,Uttar_Pradesh,Moradabad,"Transport Nagar, Moradabad - UPPCB","04-04-2025 15:00:00",28.802625,78.753728,PM10,39,108,75
India,Uttar_Pradesh,Meerut,"Pallavpuram Phase 2, Meerut - UPPCB","04-04-2025 15:00:00",29.063510,77.709723,NO2,4,78,22
India,Uttar_Pradesh,Meerut,"Pallavpuram Phase 2, Meerut - UPPCB","04-04-2025 15:00:00",29.063510,77.709723,NH3,11,34,17
India,Uttar_Pradesh,Meerut,"Pallavpuram Phase 2, Meerut - UPPCB","04-04-2025 15:00:00",29.063510,77.709723,CO,16,138,40
India,Uttar_Pradesh,Moradabad,"Eco Herbal Park, Moradabad - UPPCB","04-04-2025 15:00:00",28.840739,78.697531,NO2,10,129,44
India,Uttar_Pradesh,Moradabad,"Employment Office, Moradabad - UPPCB","04-04-2025 15:00:00",28.88528,78.73880,SO2,27,40,31
India,Uttar_Pradesh,Prayagraj,"Jhunsi, Prayagraj - UPPCB","04-04-2025 15:00:00",25.425602,81.917152,PM10,49,186,114
India,Uttar_Pradesh,Lucknow,"Lalbagh, Lucknow - CPCB","04-04-2025 15:00:00",26.8458805,80.9365541,OZONE,12,42,33
India,Uttar_Pradesh,Moradabad,"Buddhi Vihar, Moradabad - UPPCB","04-04-2025 15:00:00",28.83526,78.74460,NH3,4,4,4
India,West_Bengal,Asansol,"Asansol Court Area, Asansol - WBPCB","04-04-2025 15:00:00",23.685297,86.945968,PM10,87,155,115
India,West_Bengal,Asansol,"Asansol Court Area, Asansol - WBPCB","04-04-2025 15:00:00",23.685297,86.945968,NO2,NA,NA,NA
India,West_Bengal,Asansol,"Asansol Court Area, Asansol - WBPCB","04-04-2025 15:00:00",23.685297,86.945968,SO2,21,54,37
India,West_Bengal,Asansol,"Asansol Court Area, Asansol - WBPCB","04-04-2025 15:00:00",23.685297,86.945968,CO,6,76,51
India,West_Bengal,Asansol,"Evelyn Lodge, Asansol - WBPCB","04-04-2025 15:00:00",23.6979360,86.9443950,PM2.5,48,223,94
India,West_Bengal,Asansol,"Evelyn Lodge, Asansol - WBPCB","04-04-2025 15:00:00",23.6979360,86.9443950,PM10,83,178,117
India,Uttar_Pradesh,Prayagraj,"Motilal Nehru NIT, Prayagraj - UPPCB","04-04-2025 15:00:00",25.494,81.863,NH3,6,6,6
India,Uttar_Pradesh,Prayagraj,"Motilal Nehru NIT, Prayagraj - UPPCB","04-04-2025 15:00:00",25.494,81.863,SO2,18,23,20
India,Uttar_Pradesh,Prayagraj,"Nagar Nigam, Prayagraj - UPPCB","04-04-2025 15:00:00","25.44919916 ","81.82735986 ",PM2.5,NA,NA,NA
India,Uttar_Pradesh,Prayagraj,"Nagar Nigam, Prayagraj - UPPCB","04-04-2025 15:00:00","25.44919916 ","81.82735986 ",OZONE,11,12,11
India,Uttar_Pradesh,Varanasi,"IESD Banaras Hindu University, Varanasi - UPPCB","04-04-2025 15:00:00",25.262326,82.995408,PM2.5,37,175,81
India,Uttar_Pradesh,Varanasi,"IESD Banaras Hindu University, Varanasi - UPPCB","04-04-2025 15:00:00",25.262326,82.995408,PM10,39,120,74
India,Uttar_Pradesh,Varanasi,"IESD Banaras Hindu University, Varanasi - UPPCB","04-04-2025 15:00:00",25.262326,82.995408,NH3,3,9,6
India,West_Bengal,Durgapur,"Mahishkapur Road_B-Zone, Durgapur - WBPCB","04-04-2025 15:00:00",23.567923,87.306843,PM10,1,194,118
India,West_Bengal,Durgapur,"Mahishkapur Road_B-Zone, Durgapur - WBPCB","04-04-2025 15:00:00",23.567923,87.306843,NO2,7,44,25
India,Uttar_Pradesh,Varanasi,"Bhelupur, Varanasi - UPPCB","04-04-2025 15:00:00",25.301778,82.996789,PM2.5,17,75,36
India,Uttar_Pradesh,Varanasi,"Bhelupur, Varanasi - UPPCB","04-04-2025 15:00:00",25.301778,82.996789,PM10,64,211,119
India,Uttarakhand,Kashipur,"Govt. Girls Inter College, Kashipur - UKPCB","04-04-2025 15:00:00",29.2124114,78.9611753,OZONE,20,75,49
India,Uttarakhand,Dehradun,"Doon University, Dehradun - UKPCB","04-04-2025 15:00:00",30.269444,78.044167,PM2.5,18,91,57
India,Uttar_Pradesh,Vrindavan,"Omex Eternity, Vrindavan - UPPCB","04-04-2025 15:00:00",27.5714090,77.6557570,NO2,12,12,12
India,Uttarakhand,Rishikesh,"Shivaji Nagar, Rishikesh - UKPCB","04-04-2025 15:00:00",30.075911,78.2859547,SO2,2,4,4
India,West_Bengal,Durgapur,"Mahishkapur Road_B-Zone, Durgapur - WBPCB","04-04-2025 15:00:00",23.567923,87.306843,SO2,21,95,42
India,West_Bengal,Durgapur,"Mahishkapur Road_B-Zone, Durgapur - WBPCB","04-04-2025 15:00:00",23.567923,87.306843,OZONE,20,84,53
India,West_Bengal,Durgapur,"PCBL Residential Complex, Durgapur - WBPCB","04-04-2025 15:00:00",23.5087640,87.3544400,NH3,1,2,1
India,West_Bengal,Durgapur,"PCBL Residential Complex, Durgapur - WBPCB","04-04-2025 15:00:00",23.5087640,87.3544400,CO,62,121,101
India,West_Bengal,Haldia,"Priyambada Housing Estate, Haldia - WBPCB","04-04-2025 15:00:00",22.06047,88.109737,SO2,7,106,51
India,West_Bengal,Howrah,"Belur Math, Howrah - WBPCB","04-04-2025 15:00:00",22.629801,88.352017,PM2.5,23,71,47
India,West_Bengal,Howrah,"Botanical Garden, Howrah - WBPCB","04-04-2025 15:00:00",22.554954,88.292568,SO2,4,10,5
India,West_Bengal,Howrah,"Dasnagar, Howrah - WBPCB","04-04-2025 15:00:00",22.6025571,88.3105664,NO2,11,53,29
India,West_Bengal,Howrah,"Ghusuri, Howrah - WBPCB","04-04-2025 15:00:00",22.611968,88.347422,PM2.5,41,213,91
India,West_Bengal,Howrah,"Ghusuri, Howrah - WBPCB","04-04-2025 15:00:00",22.611968,88.347422,PM10,43,132,82
India,West_Bengal,Howrah,"Ghusuri, Howrah - WBPCB","04-04-2025 15:00:00",22.611968,88.347422,NH3,NA,NA,NA
India,West_Bengal,Howrah,"Padmapukur, Howrah - WBPCB","04-04-2025 15:00:00",22.5687319,88.2797276,NO2,10,28,18
India,West_Bengal,Kolkata,"Ballygunge, Kolkata - WBPCB","04-04-2025 15:00:00",22.5367507,88.3638022,NO2,16,40,23
India,West_Bengal,Kolkata,"Ballygunge, Kolkata - WBPCB","04-04-2025 15:00:00",22.5367507,88.3638022,NH3,6,7,6
India,West_Bengal,Kolkata,"Bidhannagar, Kolkata - WBPCB","04-04-2025 15:00:00",22.58157048,88.41002457,SO2,7,26,11
India,West_Bengal,Kolkata,"Jadavpur, Kolkata - WBPCB","04-04-2025 15:00:00",22.49929,88.36917,CO,17,34,28
India,West_Bengal,Kolkata,"Rabindra Bharati University, Kolkata - WBPCB","04-04-2025 15:00:00",22.627847,88.380669,PM2.5,36,101,57
India,West_Bengal,Kolkata,"Rabindra Bharati University, Kolkata - WBPCB","04-04-2025 15:00:00",22.627847,88.380669,PM10,37,115,64
India,Andhra_Pradesh,Kadapa,"Yerramukkapalli, Kadapa - APPCB","04-04-2025 15:00:00",14.465052,78.824187,NH3,4,5,4
India,Andhra_Pradesh,Rajamahendravaram,"Anand Kala Kshetram, Rajamahendravaram - APPCB","04-04-2025 15:00:00",16.9872867,81.7363176,NH3,3,10,6
India,Andhra_Pradesh,Rajamahendravaram,"Anand Kala Kshetram, Rajamahendravaram - APPCB","04-04-2025 15:00:00",16.9872867,81.7363176,SO2,9,20,13
India,Andhra_Pradesh,Rajamahendravaram,"Anand Kala Kshetram, Rajamahendravaram - APPCB","04-04-2025 15:00:00",16.9872867,81.7363176,OZONE,6,7,6
India,Andhra_Pradesh,Tirumala,"Toll Gate, Tirumala - APPCB (Formerly known as Tirumala, Tirupati - APPCB)","04-04-2025 15:00:00",13.67,79.35,CO,1,74,17
India,Andhra_Pradesh,Tirupati,"Vaikuntapuram, Tirupati - APPCB","04-04-2025 15:00:00",13.615387,79.409230,PM2.5,NA,NA,NA
India,Andhra_Pradesh,Vijayawada,"HB Colony, Vijayawada - APPCB","04-04-2025 15:00:00",16.536107,80.594233,PM10,52,154,68
India,Andhra_Pradesh,Vijayawada,"HB Colony, Vijayawada - APPCB","04-04-2025 15:00:00",16.536107,80.594233,NO2,13,23,15
India,Assam,Guwahati,"Railway Colony, Guwahati - PCBA","04-04-2025 15:00:00",26.181742,91.78063,CO,34,114,45
India,Assam,Nagaon,"Christianpatty, Nagaon - PCBA","04-04-2025 15:00:00",26.349082,92.68449,NH3,3,4,4
India,Assam,Nalbari,"Bata Chowk, Nalbari - PCBA","04-04-2025 15:00:00",26.446912,91.439057,PM2.5,42,230,134
India,Assam,Nalbari,"Bata Chowk, Nalbari - PCBA","04-04-2025 15:00:00",26.446912,91.439057,NO2,1,9,4
India,Assam,Nalbari,"Bata Chowk, Nalbari - PCBA","04-04-2025 15:00:00",26.446912,91.439057,CO,17,62,34
India,Assam,Silchar,"Tarapur, Silchar - PCBA","04-04-2025 15:00:00",24.82827,92.79525,PM10,52,65,58
India,Assam,Silchar,"Tarapur, Silchar - PCBA","04-04-2025 15:00:00",24.82827,92.79525,SO2,1,13,6
India,Assam,Sivasagar,"Girls College, Sivasagar - PCBA","04-04-2025 15:00:00",26.987634,94.636574,PM2.5,53,74,65
India,Assam,Sivasagar,"Girls College, Sivasagar - PCBA","04-04-2025 15:00:00",26.987634,94.636574,SO2,4,13,9
India,Andhra_Pradesh,Amaravati,"Secretariat, Amaravati - APPCB","04-04-2025 15:00:00",16.5150833,80.5181667,PM2.5,20,83,42
India,Andhra_Pradesh,Amaravati,"Secretariat, Amaravati - APPCB","04-04-2025 15:00:00",16.5150833,80.5181667,NO2,20,76,30
India,Andhra_Pradesh,Anantapur,"Gulzarpet, Anantapur - APPCB","04-04-2025 15:00:00",14.675886,77.593027,NO2,23,33,27
India,Andhra_Pradesh,Chittoor,"Gangineni Cheruvu, Chittoor - APPCB","04-04-2025 15:00:00",13.204880,79.097889,SO2,2,3,3
India,Andhra_Pradesh,Chittoor,"Gangineni Cheruvu, Chittoor - APPCB","04-04-2025 15:00:00",13.204880,79.097889,CO,8,29,24
India,Andhra_Pradesh,Kadapa,"Yerramukkapalli, Kadapa - APPCB","04-04-2025 15:00:00",14.465052,78.824187,PM2.5,34,68,54
India,Andhra_Pradesh,Vijayawada,"Rajiv Gandhi Park, Vijayawada - APPCB","04-04-2025 15:00:00",16.509717,80.612222,NO2,33,57,45
India,Andhra_Pradesh,Vijayawada,"Rajiv Gandhi Park, Vijayawada - APPCB","04-04-2025 15:00:00",16.509717,80.612222,CO,30,41,33
India,Andhra_Pradesh,Vijayawada,"Rajiv Nagar, Vijayawada - APPCB","04-04-2025 15:00:00",16.554731,80.649110,PM2.5,49,174,73
India,Andhra_Pradesh,Vijayawada,"Rajiv Nagar, Vijayawada - APPCB","04-04-2025 15:00:00",16.554731,80.649110,NO2,14,18,16
India,Andhra_Pradesh,Vijayawada,"Rajiv Nagar, Vijayawada - APPCB","04-04-2025 15:00:00",16.554731,80.649110,NH3,3,4,3
India,Andhra_Pradesh,Vijayawada,"Rajiv Nagar, Vijayawada - APPCB","04-04-2025 15:00:00",16.554731,80.649110,SO2,20,102,38
India,Bihar,Aurangabad,"Gurdeo Nagar, Aurangabad - BSPCB","04-04-2025 15:00:00",24.75746,84.366208,NH3,1,1,1
India,Bihar,Aurangabad,"Gurdeo Nagar, Aurangabad - BSPCB","04-04-2025 15:00:00",24.75746,84.366208,SO2,9,18,13
India,Bihar,Begusarai,"Lohiyanagar, Begusarai - BSPCB","04-04-2025 15:00:00",25.42742023,86.13886079,PM10,5,199,115
India,Bihar,Araria,"Kharahiya Basti, Araria - BSPCB","04-04-2025 15:00:00",26.146529,87.454184,SO2,23,37,27
India,Bihar,Arrah,"New DM Office, Arrah - BSPCB","04-04-2025 15:00:00",25.5626095,84.663264,PM2.5,25,65,38
India,Andhra_Pradesh,Vijayawada,"Kanuru, Vijayawada - APPCB","04-04-2025 15:00:00",16.486692,80.699436,PM10,51,71,58
India,Andhra_Pradesh,Vijayawada,"Kanuru, Vijayawada - APPCB","04-04-2025 15:00:00",16.486692,80.699436,SO2,6,13,8
India,Arunachal_Pradesh,Naharlagun,"Naharlagun, Naharlagun - APSPCB","04-04-2025 15:00:00",27.103358,93.679645,PM2.5,63,183,103
India,Bihar,Begusarai,"Lohiyanagar, Begusarai - BSPCB","04-04-2025 15:00:00",25.42742023,86.13886079,SO2,3,67,25
India,Assam,Guwahati,"LGBI Airport, Guwahati - PCBA","04-04-2025 15:00:00",26.10887,91.589544,CO,4,48,14
India,Bihar,Gaya,"Kareemganj, Gaya - BSPCB","04-04-2025 15:00:00",24.792403,84.992416,PM2.5,38,90,63
India,Bihar,Gaya,"Kareemganj, Gaya - BSPCB","04-04-2025 15:00:00",24.792403,84.992416,SO2,16,21,18
India,Bihar,Gaya,"SFTI Kusdihra, Gaya - BSPCB","04-04-2025 15:00:00",24.762518,84.982348,CO,16,40,34
India,Bihar,Gaya,"SFTI Kusdihra, Gaya - BSPCB","04-04-2025 15:00:00",24.762518,84.982348,OZONE,27,61,44
India,Bihar,Hajipur,"Industrial Area, Hajipur - BSPCB","04-04-2025 15:00:00",25.697189,85.245900,NH3,6,8,7
India,Bihar,Katihar,"Mirchaibari, Katihar - BSPCB","04-04-2025 15:00:00",25.560083,87.553265,OZONE,14,86,29
India,Bihar,Kishanganj,"SDM Office_Khagra, Kishanganj - BSPCB","04-04-2025 15:00:00",26.0881305,87.93840336,SO2,23,117,65
India,Bihar,Manguraha,"Forest Rest House, Manguraha - BSPCB","04-04-2025 15:00:00",27.308328,84.531742,PM2.5,NA,NA,NA
India,Bihar,Manguraha,"Forest Rest House, Manguraha - BSPCB","04-04-2025 15:00:00",27.308328,84.531742,PM10,NA,NA,NA
India,Bihar,Buxar,"Charitra Van, Buxar - BSPCB","04-04-2025 15:00:00",25.567520,83.966379,SO2,9,56,19
India,Bihar,Buxar,"Charitra Van, Buxar - BSPCB","04-04-2025 15:00:00",25.567520,83.966379,CO,12,30,14
India,Bihar,Buxar,"Charitra Van, Buxar - BSPCB","04-04-2025 15:00:00",25.567520,83.966379,OZONE,57,171,164
India,Bihar,Chhapra,"Darshan Nagar, Chhapra - BSPCB","04-04-2025 15:00:00",25.7808257,84.7446768,CO,4,4,4
India,Bihar,"Bihar Sharif","D M Colony, Bihar Sharif - BSPCB","04-04-2025 15:00:00",25.204762,85.514960,OZONE,11,40,30
India,Bihar,Buxar,"Charitra Van, Buxar - BSPCB","04-04-2025 15:00:00",25.567520,83.966379,PM2.5,40,110,64
India,Bihar,Munger,"Town Hall, Munger - BSPCB","04-04-2025 15:00:00",25.376776,86.471523,NO2,22,23,23
India,Bihar,Munger,"Town Hall, Munger - BSPCB","04-04-2025 15:00:00",25.376776,86.471523,NH3,6,8,7
India,Bihar,Munger,"Town Hall, Munger - BSPCB","04-04-2025 15:00:00",25.376776,86.471523,OZONE,1,6,4
India,Bihar,Manguraha,"Forest Rest House, Manguraha - BSPCB","04-04-2025 15:00:00",27.308328,84.531742,SO2,6,7,6
India,Bihar,Bettiah,"Kamalnath Nagar, Bettiah - BSPCB","04-04-2025 15:00:00",26.80365,84.51954,CO,28,105,66
India,Bihar,Bettiah,"Kamalnath Nagar, Bettiah - BSPCB","04-04-2025 15:00:00",26.80365,84.51954,NH3,2,6,4
India,Bihar,Bettiah,"Kamalnath Nagar, Bettiah - BSPCB","04-04-2025 15:00:00",26.80365,84.51954,PM10,NA,NA,NA
India,Bihar,Muzaffarpur,"Muzaffarpur Collectorate, Muzaffarpur - BSPCB","04-04-2025 15:00:00",26.1209,85.3647,OZONE,16,77,27
India,Bihar,Patna,"DRM Office Danapur, Patna - BSPCB","04-04-2025 15:00:00",25.586562,85.043586,PM10,92,146,122
India,Bihar,Patna,"Govt. High School Shikarpur, Patna - BSPCB","04-04-2025 15:00:00",25.592539,85.227158,PM2.5,55,156,103
India,Bihar,Patna,"Govt. High School Shikarpur, Patna - BSPCB","04-04-2025 15:00:00",25.592539,85.227158,NH3,11,14,13
India,Bihar,Patna,"IGSC Planetarium Complex, Patna - BSPCB","04-04-2025 15:00:00",25.610369,85.132568,PM2.5,69,190,123
India,Bihar,Patna,"IGSC Planetarium Complex, Patna - BSPCB","04-04-2025 15:00:00",25.610369,85.132568,SO2,6,13,10
India,Bihar,Patna,"IGSC Planetarium Complex, Patna - BSPCB","04-04-2025 15:00:00",25.610369,85.132568,OZONE,41,60,42
India,Bihar,Samastipur,"DM Office_Kasipur, Samastipur - BSPCB","04-04-2025 15:00:00",25.859655,85.77944,PM10,56,243,106
India,Bihar,Samastipur,"DM Office_Kasipur, Samastipur - BSPCB","04-04-2025 15:00:00",25.859655,85.77944,NH3,2,2,2
India,Bihar,Sasaram,"Dada Peer, Sasaram - BSPCB","04-04-2025 15:00:00",24.952822,84.002396,PM2.5,92,322,187
India,Bihar,Siwan,"Chitragupta Nagar, Siwan - BSPCB","04-04-2025 15:00:00",26.2271665,84.3570427,PM10,37,135,89
India,Bihar,Patna,"Muradpur, Patna - BSPCB","04-04-2025 15:00:00",25.619651,85.147382,NO2,7,61,24
India,Bihar,Patna,"Rajbansi Nagar, Patna - BSPCB","04-04-2025 15:00:00",25.599486,85.113666,PM2.5,51,112,86
India,Bihar,Patna,"Rajbansi Nagar, Patna - BSPCB","04-04-2025 15:00:00",25.599486,85.113666,NO2,10,68,29
India,Bihar,Patna,"Rajbansi Nagar, Patna - BSPCB","04-04-2025 15:00:00",25.599486,85.113666,SO2,2,103,23
India,Bihar,Muzaffarpur,"MIT-Daudpur Kothi, Muzaffarpur - BSPCB","04-04-2025 15:00:00",26.1403345,85.3650192,NH3,2,5,4
India,Bihar,Muzaffarpur,"MIT-Daudpur Kothi, Muzaffarpur - BSPCB","04-04-2025 15:00:00",26.1403345,85.3650192,SO2,6,11,8
India,Bihar,Muzaffarpur,"MIT-Daudpur Kothi, Muzaffarpur - BSPCB","04-04-2025 15:00:00",26.1403345,85.3650192,OZONE,4,59,32
India,Bihar,Saharsa,"Police Line, Saharsa - BSPCB","04-04-2025 15:00:00",25.892357,86.590325,NO2,5,7,7
India,Bihar,Saharsa,"Police Line, Saharsa - BSPCB","04-04-2025 15:00:00",25.892357,86.590325,SO2,9,18,14
India,Bihar,Muzaffarpur,"MIT-Daudpur Kothi, Muzaffarpur - BSPCB","04-04-2025 15:00:00",26.1403345,85.3650192,PM10,NA,NA,NA
India,Bihar,Muzaffarpur,"Buddha Colony, Muzaffarpur - BSPCB","04-04-2025 15:00:00",26.11442,85.39813,NH3,9,14,12
India,Bihar,Saharsa,"Police Line, Saharsa - BSPCB","04-04-2025 15:00:00",25.892357,86.590325,CO,12,50,15
India,Bihar,Purnia,"Mariam Nagar, Purnia - BSPCB","04-04-2025 15:00:00",25.366336,87.117468,PM10,NA,NA,NA
India,Chhattisgarh,Bilaspur,"Mangala, Bilaspur - NTPC","04-04-2025 15:00:00",22.08815,82.13737,SO2,NA,NA,NA
India,Chhattisgarh,Bilaspur,"Mangala, Bilaspur - NTPC","04-04-2025 15:00:00",22.08815,82.13737,CO,32,74,37
India,Chhattisgarh,Chhal,"Nawapara SECL Colony, Chhal - CECB","04-04-2025 15:00:00",22.118125,83.140608,OZONE,27,84,64
India,Chhattisgarh,Korba,"Rampur, Korba - CECB","04-04-2025 15:00:00",22.368195,82.746431,PM2.5,38,92,55
India,Chhattisgarh,Korba,"Rampur, Korba - CECB","04-04-2025 15:00:00",22.368195,82.746431,PM10,45,105,72
India,Chhattisgarh,Raipur,"Krishak Nagar, Raipur - CECB","04-04-2025 15:00:00",21.237755,81.705301,NO2,22,29,25
India,Chhattisgarh,Raipur,"Siltara Phase-II, Raipur - CECB","04-04-2025 15:00:00",21.371751,81.664929,PM2.5,55,100,70
India,Chhattisgarh,Raipur,"Siltara Phase-II, Raipur - CECB","04-04-2025 15:00:00",21.371751,81.664929,CO,10,28,18
India,Chhattisgarh,Tumidih,"OP Jindal Industrial Park, Tumidih - CECB","04-04-2025 15:00:00",22.06631475,83.33820077,PM2.5,NA,NA,NA
India,Chhattisgarh,Korba,"Rampur, Korba - CECB","04-04-2025 15:00:00",22.368195,82.746431,CO,40,60,46
India,Chhattisgarh,Korba,"Urja Nagar, Korba - CECB","04-04-2025 15:00:00",22.348441,82.549611,NO2,23,88,75
India,Chhattisgarh,Korba,"Urja Nagar, Korba - CECB","04-04-2025 15:00:00",22.348441,82.549611,NH3,1,5,4
India,Chhattisgarh,Korba,"Urja Nagar, Korba - CECB","04-04-2025 15:00:00",22.348441,82.549611,CO,25,48,40
India,Chhattisgarh,Bhilai,"32Bungalows, Bhilai - CECB","04-04-2025 15:00:00",21.194815,81.314770,NH3,3,5,4
India,Chhattisgarh,Bhilai,"Civic Center, Bhilai - Bhilai Steel Plant","04-04-2025 15:00:00",21.185571,81.343175,PM10,36,77,53
India,Chhattisgarh,Milupara,"Govt. Higher Secondary School, Milupara - CECB","04-04-2025 15:00:00",22.1910172,83.5197009,PM10,NA,NA,NA
India,Chhattisgarh,Milupara,"Govt. Higher Secondary School, Milupara - CECB","04-04-2025 15:00:00",22.1910172,83.5197009,NH3,NA,NA,NA
India,Chhattisgarh,Milupara,"Govt. Higher Secondary School, Milupara - CECB","04-04-2025 15:00:00",22.1910172,83.5197009,CO,5,32,9
India,Delhi,Delhi,"Alipur, Delhi - DPCC","04-04-2025 15:00:00",28.815329,77.153010,CO,34,89,54
India,Delhi,Delhi,"Anand Vihar, Delhi - DPCC","04-04-2025 15:00:00",28.647622,77.3158090,NH3,1,12,5
India,Chhattisgarh,Raipur,"Bhatagaon New ISBT, Raipur - CECB","04-04-2025 15:00:00",21.219665,81.630094,PM2.5,2,239,44
India,Chandigarh,Chandigarh,"Sector-25, Chandigarh - CPCC","04-04-2025 15:00:00",30.751462,76.762879,PM2.5,51,162,101
India,Chandigarh,Chandigarh,"Sector-25, Chandigarh - CPCC","04-04-2025 15:00:00",30.751462,76.762879,SO2,4,16,7
India,Delhi,Delhi,"IGI Airport (T3), Delhi - IMD","04-04-2025 15:00:00",28.5627763,77.1180053,NO2,65,149,118
India,Delhi,Delhi,"IHBAS, Dilshad Garden, Delhi - CPCB","04-04-2025 15:00:00",28.6811736,77.3025234,NO2,11,72,31
India,Delhi,Delhi,"ITO, Delhi - CPCB","04-04-2025 15:00:00",28.628624,77.241060,NO2,26,268,124
India,Delhi,Delhi,"ITO, Delhi - CPCB","04-04-2025 15:00:00",28.628624,77.241060,NH3,5,15,9
India,Delhi,Delhi,"Chandni Chowk, Delhi - IITM","04-04-2025 15:00:00",28.656756,77.227234,CO,62,173,112
India,Delhi,Delhi,"DTU, Delhi - CPCB","04-04-2025 15:00:00",28.7500499,77.1112615,CO,22,47,38
India,Delhi,Delhi,"Dr. Karni Singh Shooting Range, Delhi - DPCC","04-04-2025 15:00:00",28.498571,77.264840,CO,36,61,48
India,Delhi,Delhi,"Dr. Karni Singh Shooting Range, Delhi - DPCC","04-04-2025 15:00:00",28.498571,77.264840,PM10,NA,NA,NA
India,Delhi,Delhi,"IGI Airport (T3), Delhi - IMD","04-04-2025 15:00:00",28.5627763,77.1180053,PM2.5,18,300,110
India,Delhi,Delhi,"Dwarka-Sector 8, Delhi - DPCC ","04-04-2025 15:00:00",28.5710274,77.0719006,CO,2,154,68
India,Delhi,Delhi,"Burari Crossing, Delhi - IMD","04-04-2025 15:00:00",28.7256504,77.2011573,NO2,7,23,17
India,Delhi,Delhi,"Aya Nagar, Delhi - IMD","04-04-2025 15:00:00",28.4706914,77.1099364,OZONE,10,184,172
India,Delhi,Delhi,"Ashok Vihar, Delhi - DPCC","04-04-2025 15:00:00",28.695381,77.181665,NO2,24,153,89
India,Delhi,Delhi,"NSIT Dwarka, Delhi - CPCB","04-04-2025 15:00:00",28.60909,77.0325413,OZONE,13,59,36
India,Delhi,Delhi,"Najafgarh, Delhi - DPCC","04-04-2025 15:00:00",28.570173,76.933762,NO2,65,119,92
India,Delhi,Delhi,"Najafgarh, Delhi - DPCC","04-04-2025 15:00:00",28.570173,76.933762,SO2,8,58,17
India,Delhi,Delhi,"Narela, Delhi - DPCC","04-04-2025 15:00:00",28.822836,77.101981,PM2.5,32,365,204
India,Delhi,Delhi,"Lodhi Road, Delhi - IMD","04-04-2025 15:00:00",28.5918245,77.2273074,PM10,103,211,157
India,Delhi,Delhi,"Lodhi Road, Delhi - IMD","04-04-2025 15:00:00",28.5918245,77.2273074,OZONE,10,262,116
India,Delhi,Delhi,"Major Dhyan Chand National Stadium, Delhi - DPCC","04-04-2025 15:00:00",28.611281,77.237738,PM10,48,340,164
India,Delhi,Delhi,"Mundka, Delhi - DPCC","04-04-2025 15:00:00",28.684678,77.076574,OZONE,4,94,58
India,Delhi,Delhi,"NSIT Dwarka, Delhi - CPCB","04-04-2025 15:00:00",28.60909,77.0325413,SO2,2,17,9
India,Delhi,Delhi,"Okhla Phase-2, Delhi - DPCC","04-04-2025 15:00:00",28.530785,77.271255,PM10,74,500,244
India,Delhi,Delhi,"Patparganj, Delhi - DPCC","04-04-2025 15:00:00",28.623763,77.287209,PM2.5,28,273,134
India,Delhi,Delhi,"Jahangirpuri, Delhi - DPCC","04-04-2025 15:00:00",28.732820,77.170633,PM2.5,25,371,223
India,Delhi,Delhi,"Jahangirpuri, Delhi - DPCC","04-04-2025 15:00:00",28.732820,77.170633,SO2,15,53,35
India,Delhi,Delhi,"Jawaharlal Nehru Stadium, Delhi - DPCC","04-04-2025 15:00:00",28.580280,77.233829,SO2,1,20,9
India,Delhi,Delhi,"Mandir Marg, Delhi - DPCC","04-04-2025 15:00:00",28.636429,77.201067,PM10,46,232,136
India,Delhi,Delhi,"Mandir Marg, Delhi - DPCC","04-04-2025 15:00:00",28.636429,77.201067,NH3,7,11,9
India,Delhi,Delhi,"Narela, Delhi - DPCC","04-04-2025 15:00:00",28.822836,77.101981,SO2,11,66,27
India,Delhi,Delhi,"R K Puram, Delhi - DPCC","04-04-2025 15:00:00",28.563262,77.186937,OZONE,9,18,13
India,Delhi,Delhi,"Rohini, Delhi - DPCC","04-04-2025 15:00:00",28.732528,77.119920,NO2,3,147,64
India,Delhi,Delhi,"Rohini, Delhi - DPCC","04-04-2025 15:00:00",28.732528,77.119920,NH3,6,15,10
India,Delhi,Delhi,"Sirifort, Delhi - CPCB","04-04-2025 15:00:00",28.5504249,77.2159377,NH3,9,25,17
India,Delhi,Delhi,"Sirifort, Delhi - CPCB","04-04-2025 15:00:00",28.5504249,77.2159377,CO,19,114,73
India,Delhi,Delhi,"Sonia Vihar, Delhi - DPCC","04-04-2025 15:00:00",28.710508,77.249485,PM10,59,500,200
India,Delhi,Delhi,"Sonia Vihar, Delhi - DPCC","04-04-2025 15:00:00",28.710508,77.249485,SO2,8,39,19
India,Delhi,Delhi,"Patparganj, Delhi - DPCC","04-04-2025 15:00:00",28.623763,77.287209,OZONE,1,266,198
India,Delhi,Delhi,"Punjabi Bagh, Delhi - DPCC","04-04-2025 15:00:00",28.674045,77.131023,PM10,78,420,213
India,Delhi,Delhi,"Pusa, Delhi - DPCC","04-04-2025 15:00:00",28.639652,77.146275,OZONE,2,56,19
India,Delhi,Delhi,"Pusa, Delhi - IMD","04-04-2025 15:00:00",28.636110,77.173332,PM10,44,290,167
India,Delhi,Delhi,"Pusa, Delhi - IMD","04-04-2025 15:00:00",28.636110,77.173332,NO2,35,165,108
India,Delhi,Delhi,"R K Puram, Delhi - DPCC","04-04-2025 15:00:00",28.563262,77.186937,CO,6,120,53
India,Delhi,Delhi,"Vivek Vihar, Delhi - DPCC","04-04-2025 15:00:00",28.672342,77.315260,SO2,4,49,24
India,Delhi,Delhi,"Vivek Vihar, Delhi - DPCC","04-04-2025 15:00:00",28.672342,77.315260,CO,23,106,55
India,Gujarat,Ahmedabad,"Chandkheda, Ahmedabad - IITM","04-04-2025 15:00:00",23.107969,72.574648,PM10,44,158,100
India,Delhi,Delhi,"Sri Aurobindo Marg, Delhi - DPCC","04-04-2025 15:00:00",28.531346,77.190156,SO2,26,52,33
India,Gujarat,Ahmedabad,"Gyaspur, Ahmedabad - IITM","04-04-2025 15:00:00",22.977134,72.553024,OZONE,1,81,13
India,Delhi,Delhi,"Vivek Vihar, Delhi - DPCC","04-04-2025 15:00:00",28.672342,77.315260,PM2.5,27,311,177
India,Gujarat,Ahmedabad,"Gyaspur, Ahmedabad - IITM","04-04-2025 15:00:00",22.977134,72.553024,CO,8,44,22
India,Delhi,Delhi,"Wazirpur, Delhi - DPCC","04-04-2025 15:00:00",28.699793,77.165453,NH3,8,19,14
India,Haryana,Panchgaon,"Amity University, Panchgaon - IITM","04-04-2025 15:00:00",28.3153,76.9143,NO2,51,87,72
India,"Himachal Pradesh",Baddi,"HIMUDA Complex Phase-1, Baddi - HPPCB","04-04-2025 15:00:00",30.943887,76.801991,PM2.5,15,133,56
India,"Himachal Pradesh",Baddi,"HIMUDA Complex Phase-1, Baddi - HPPCB","04-04-2025 15:00:00",30.943887,76.801991,SO2,5,91,34
India,Jammu_and_Kashmir,Srinagar,"Rajbagh, Srinagar - JKSPCB","04-04-2025 15:00:00",34.066206,74.819820,PM2.5,43,68,57
India,Jammu_and_Kashmir,Srinagar,"Rajbagh, Srinagar - JKSPCB","04-04-2025 15:00:00",34.066206,74.819820,NH3,2,2,2
India,Jammu_and_Kashmir,Srinagar,"Rajbagh, Srinagar - JKSPCB","04-04-2025 15:00:00",34.066206,74.819820,CO,12,20,15
India,Jharkhand,Dhanbad,"Sardar Patel Nagar, Dhanbad - JSPCB","04-04-2025 15:00:00",23.80569,86.44268,PM2.5,NA,NA,NA
India,Jharkhand,Dhanbad,"Sardar Patel Nagar, Dhanbad - JSPCB","04-04-2025 15:00:00",23.80569,86.44268,SO2,1,34,26
India,Gujarat,Gandhinagar,"Sector-10, Gandhinagar - GPCB","04-04-2025 15:00:00",23.221714,72.654328,NH3,5,6,5
India,Gujarat,Gandhinagar,"Sector-10, Gandhinagar - GPCB","04-04-2025 15:00:00",23.221714,72.654328,SO2,5,6,6
India,Gujarat,Nandesari,"GIDC, Nandesari - Nandesari Ind. Association","04-04-2025 15:00:00",22.410802,73.097923,PM10,1,5,2
India,Gujarat,Nandesari,"GIDC, Nandesari - Nandesari Ind. Association","04-04-2025 15:00:00",22.410802,73.097923,SO2,NA,NA,NA
India,Gujarat,Surat,"Science Center, Surat - SMC","04-04-2025 15:00:00",21.170046,72.795405,PM2.5,2,57,21
India,Gujarat,Surat,"Science Center, Surat - SMC","04-04-2025 15:00:00",21.170046,72.795405,SO2,40,43,42
India,Gujarat,Ahmedabad,"Raikhad, Ahmedabad - IITM","04-04-2025 15:00:00",23.020509,72.579261,PM2.5,52,145,81
India,Gujarat,Ahmedabad,"Raikhad, Ahmedabad - IITM","04-04-2025 15:00:00",23.020509,72.579261,PM10,61,118,88
India,Gujarat,Ahmedabad,"Raikhad, Ahmedabad - IITM","04-04-2025 15:00:00",23.020509,72.579261,OZONE,1,113,28
India,Gujarat,Ahmedabad,"Rakhial, Ahmedabad - IITM","04-04-2025 15:00:00",23.016834,72.625775,PM2.5,22,413,145
India,Gujarat,Ahmedabad,"SAC ISRO Bopal, Ahmedabad - IITM","04-04-2025 15:00:00",23.041137,72.456691,NH3,2,12,6
India,Gujarat,Ahmedabad,"SAC ISRO Bopal, Ahmedabad - IITM","04-04-2025 15:00:00",23.041137,72.456691,SO2,1,2,1
India,Gujarat,Vatva,"Phase-4 GIDC, Vatva - GPCB","04-04-2025 15:00:00",22.969611,72.643500,SO2,13,25,18
India,Haryana,Gurugram,"NISE Gwal Pahari, Gurugram - IMD","04-04-2025 15:00:00",28.422681,77.148944,NO2,9,89,39
India,Haryana,Panchgaon,"Amity University, Panchgaon - IITM","04-04-2025 15:00:00",28.3153,76.9143,PM2.5,NA,NA,NA
India,Gujarat,Ahmedabad,"SVPI Airport Hansol, Ahmedabad - IITM","04-04-2025 15:00:00",23.076793,72.627874,NO2,8,65,34
India,Gujarat,Ankleshwar,"GIDC, Ankleshwar - GPCB","04-04-2025 15:00:00",21.613267,73.010555,PM10,NA,NA,NA
India,Gujarat,Ankleshwar,"GIDC, Ankleshwar - GPCB","04-04-2025 15:00:00",21.613267,73.010555,SO2,5,65,34
India,Gujarat,Gandhinagar,"IIPHG Lekawada, Gandhinagar - IITM","04-04-2025 15:00:00",23.243639,72.68994,NH3,2,16,8
India,Gujarat,Gandhinagar,"GIFT City, Gandhinagar - IITM","04-04-2025 15:00:00",23.163798,72.677768,NO2,9,67,34
India,Karnataka,Bagalkot,"Vidayagiri, Bagalkot - KSPCB","04-04-2025 15:00:00",16.172806,75.659694,OZONE,12,16,16
India,Gujarat,Vatva,"Phase-4 GIDC, Vatva - GPCB","04-04-2025 15:00:00",22.969611,72.643500,NO2,35,75,44
India,Karnataka,Bengaluru,"City Railway Station, Bengaluru - KSPCB","04-04-2025 15:00:00",12.9756843,77.5660749,CO,48,86,62
India,Karnataka,Bengaluru,"Hebbal, Bengaluru - KSPCB","04-04-2025 15:00:00",13.029152,77.585901,PM10,18,62,47
India,Karnataka,Bengaluru,"RVCE-Mailasandra, Bengaluru - KSPCB","04-04-2025 15:00:00",12.921418,77.502466,CO,24,50,36
India,Karnataka,Bengaluru,"Shivapura_Peenya, Bengaluru - KSPCB","04-04-2025 15:00:00",13.0246342,77.5080115,PM2.5,36,45,41
India,Karnataka,Bengaluru,"Hombegowda Nagar, Bengaluru - KSPCB","04-04-2025 15:00:00",12.938539,77.590100,NH3,1,3,2
India,Karnataka,Bengaluru,"Hombegowda Nagar, Bengaluru - KSPCB","04-04-2025 15:00:00",12.938539,77.590100,CO,14,59,19
India,Karnataka,Bengaluru,"Kasturi Nagar, Bengaluru - KSPCB","04-04-2025 15:00:00",13.003872,77.664217,SO2,8,9,9
India,Karnataka,Bengaluru,"Kasturi Nagar, Bengaluru - KSPCB","04-04-2025 15:00:00",13.003872,77.664217,OZONE,28,29,28
India,Karnataka,Bengaluru,"City Railway Station, Bengaluru - KSPCB","04-04-2025 15:00:00",12.9756843,77.5660749,PM10,87,98,91
India,Karnataka,Bengaluru,"City Railway Station, Bengaluru - KSPCB","04-04-2025 15:00:00",12.9756843,77.5660749,NO2,30,33,32
India,Karnataka,Chikkaballapur,"Chikkaballapur Rural, Chikkaballapur - KSPCB","04-04-2025 15:00:00",13.428828,77.731418,PM2.5,2,62,30
India,Karnataka,Bengaluru,"Jayanagar 5th Block, Bengaluru - KSPCB","04-04-2025 15:00:00",12.920984,77.584908,PM10,NA,NA,NA
India,Karnataka,Bengaluru,"BTM Layout, Bengaluru - CPCB","04-04-2025 15:00:00",12.9135218,77.5950804,PM10,21,198,59
India,Karnataka,Bengaluru,"RVCE-Mailasandra, Bengaluru - KSPCB","04-04-2025 15:00:00",12.921418,77.502466,NH3,3,4,4
India,Karnataka,Chikkamagaluru,"Kalyana Nagara, Chikkamagaluru - KSPCB","04-04-2025 15:00:00",13.328028,75.797056,NO2,19,35,23
India,Karnataka,Chikkamagaluru,"Kalyana Nagara, Chikkamagaluru - KSPCB","04-04-2025 15:00:00",13.328028,75.797056,NH3,2,3,2
India,Karnataka,Chikkamagaluru,"Kalyana Nagara, Chikkamagaluru - KSPCB","04-04-2025 15:00:00",13.328028,75.797056,CO,11,111,21
India,Karnataka,Davanagere,"Devaraj Urs Badavane, Davanagere - KSPCB","04-04-2025 15:00:00",14.475800,75.905200,NH3,2,2,2
India,Karnataka,Davanagere,"Devaraj Urs Badavane, Davanagere - KSPCB","04-04-2025 15:00:00",14.475800,75.905200,SO2,5,16,7
India,Karnataka,Kalaburagi,"Mahatma Basaveswar Colony, Kalaburgi - KSPCB","04-04-2025 15:00:00",17.336318,76.847397,OZONE,1,15,7
India,Karnataka,Koppal,"Diwator Nagar, Koppal - KSPCB","04-04-2025 15:00:00",15.347630,76.181767,NO2,11,23,17
India,Karnataka,Madikeri,"Stuart Hill, Madikeri - KSPCB","04-04-2025 15:00:00",12.415911,75.735050,PM2.5,5,30,14
India,Karnataka,Hubballi,"Lingaraj Nagar, Hubballi - KSPCB","04-04-2025 15:00:00",15.3714823,75.1160168,PM2.5,34,39,36
India,Karnataka,Hubballi,"Lingaraj Nagar, Hubballi - KSPCB","04-04-2025 15:00:00",15.3714823,75.1160168,CO,8,18,14
India,Karnataka,Kalaburagi,"Lal Bahadur Shastri Nagar, Kalaburagi - KSPCB","04-04-2025 15:00:00",17.321993,76.822628,PM2.5,35,92,59
India,Karnataka,Mangalore,"Kadri, Mangalore - KSPCB","04-04-2025 15:00:00",12.889250,74.853000,SO2,5,12,7
India,Karnataka,Mangalore,"Kadri, Mangalore - KSPCB","04-04-2025 15:00:00",12.889250,74.853000,CO,26,64,45
India,Karnataka,Mangalore,"Kadri, Mangalore - KSPCB","04-04-2025 15:00:00",12.889250,74.853000,OZONE,34,34,34
India,Karnataka,Gadag,"Panchal Nagar, Gadag - KSPCB","04-04-2025 15:00:00",15.411456,75.638133,SO2,17,20,18
India,Karnataka,Haveri,"Ashwini Nagar, Haveri - KSPCB","04-04-2025 15:00:00",14.791800,75.389600,PM2.5,NA,NA,NA
India,Karnataka,Ramanagara,"Vijay Nagar, Ramanagara - KSPCB","04-04-2025 15:00:00",12.733409,77.298051,PM2.5,16,58,34
India,Karnataka,Shivamogga,"Vinoba Nagara, Shivamogga - KSPCB","04-04-2025 15:00:00",13.940000,75.555917,NH3,2,3,2
India,Karnataka,Tumakuru,"Thimmalapura, Tumakuru - KSPCB","04-04-2025 15:00:00",13.377516,77.099072,CO,56,58,57
India,Karnataka,Yadgir,"Collector Office, Yadgir - KSPCB","04-04-2025 15:00:00",16.7602,77.1428,NH3,3,4,3
India,Kerala,Kannur,"Thavakkara, Kannur - Kerala PCB","04-04-2025 15:00:00",11.875000,75.373200,NO2,15,17,16
India,Kerala,Kollam,"Polayathode, Kollam - Kerala PCB","04-04-2025 15:00:00",8.8787,76.6073,PM2.5,NA,NA,NA
India,Kerala,Kollam,"Polayathode, Kollam - Kerala PCB","04-04-2025 15:00:00",8.8787,76.6073,SO2,NA,NA,NA
India,Kerala,Kollam,"Polayathode, Kollam - Kerala PCB","04-04-2025 15:00:00",8.8787,76.6073,CO,NA,NA,NA
India,Kerala,Thiruvananthapuram,"Kariavattom, Thiruvananthapuram - Kerala PCB","04-04-2025 15:00:00",8.563700,76.886500,CO,12,48,22
India,"Madhya Pradesh",Bhopal,"Paryavaran Parisar, Bhopal - MPPCB","04-04-2025 15:00:00",23.210494,77.425409,PM2.5,35,325,129
India,"Madhya Pradesh",Bhopal,"Paryavaran Parisar, Bhopal - MPPCB","04-04-2025 15:00:00",23.210494,77.425409,SO2,6,23,10
India,"Madhya Pradesh",Bhopal,"T T Nagar, Bhopal - MPPCB","04-04-2025 15:00:00",23.233584,77.400574,NH3,15,33,23
India,"Madhya Pradesh",Damoh,"Shrivastav Colony, Damoh - MPPCB","04-04-2025 15:00:00",23.81748678,79.446246,SO2,NA,NA,NA
India,"Madhya Pradesh",Indore,"Chhoti Gwaltoli, Indore - MPPCB","04-04-2025 15:00:00",22.4310,75.5213,SO2,9,38,19
India,"Madhya Pradesh",Indore,"Regional Park, Indore - IMC","04-04-2025 15:00:00",22.6780,75.8559,NO2,37,59,46
